[{"name":"คลองมหานาค, เขตป้อมปราบศัตรูพ่าย, กรุงเทพมหานคร, 10100","lat":"13.753","lon":"100.513"},{"name":"บ้านบาตร, เขตป้อมปราบศัตรูพ่าย, กรุงเทพมหานคร, 10100","lat":"13.752","lon":"100.507"},{"name":"ป้อมปราบ, เขตป้อมปราบศัตรูพ่าย, กรุงเทพมหานคร, 10100","lat":"13.743","lon":"100.514"},{"name":"วัดเทพศิรินทร์, เขตป้อมปราบศัตรูพ่าย, กรุงเทพมหานคร, 10100","lat":"13.749","lon":"100.512"},{"name":"วัดโสมนัส, เขตป้อมปราบศัตรูพ่าย, กรุงเทพมหานคร, 10100","lat":"13.759","lon":"100.511"},{"name":"จักรวรรดิ, เขตสัมพันธวงศ์, กรุงเทพมหานคร, 10100","lat":"13.741","lon":"100.504"},{"name":"ตลาดน้อย, เขตสัมพันธวงศ์, กรุงเทพมหานคร, 10100","lat":"13.734","lon":"100.513"},{"name":"สัมพันธวงศ์, เขตสัมพันธวงศ์, กรุงเทพมหานคร, 10100","lat":"13.739","lon":"100.511"},{"name":"คลองเตย, เขตคลองเตย, กรุงเทพมหานคร, 10110","lat":"13.71","lon":"100.57"},{"name":"คลองตัน, เขตคลองเตย, กรุงเทพมหานคร, 10110","lat":"13.723","lon":"100.571"},{"name":"พระโขนง, เขตคลองเตย, กรุงเทพมหานคร, 10110","lat":"13.707","lon":"100.595"},{"name":"คลองเตยเหนือ, เขตวัฒนา, กรุงเทพมหานคร, 10110","lat":"13.743","lon":"100.56"},{"name":"คลองตันเหนือ, เขตวัฒนา, กรุงเทพมหานคร, 10110","lat":"13.736","lon":"100.576"},{"name":"พระโขนงเหนือ, เขตวัฒนา, กรุงเทพมหานคร, 10110","lat":"13.719","lon":"100.596"},{"name":"บางโคล่, เขตบางคอแหลม, กรุงเทพมหานคร, 10120","lat":"13.694","lon":"100.516"},{"name":"บางคอแหลม, เขตบางคอแหลม, กรุงเทพมหานคร, 10120","lat":"13.696","lon":"100.494"},{"name":"วัดพระยาไกร, เขตบางคอแหลม, กรุงเทพมหานคร, 10120","lat":"13.706","lon":"100.508"},{"name":"ช่องนนทรี, เขตยานนาวา, กรุงเทพมหานคร, 10120","lat":"13.682","lon":"100.533"},{"name":"บางโพงพาง, เขตยานนาวา, กรุงเทพมหานคร, 10120","lat":"13.697","lon":"100.544"},{"name":"ทุ่งมหาเมฆ, เขตสาทร, กรุงเทพมหานคร, 10120","lat":"13.718","lon":"100.541"},{"name":"ทุ่งวัดดอน, เขตสาทร, กรุงเทพมหานคร, 10120","lat":"13.71","lon":"100.532"},{"name":"ยานนาวา, เขตสาทร, กรุงเทพมหานคร, 10120","lat":"13.714","lon":"100.514"},{"name":"ตลาด, อำเภอพระประแดง, สมุทรปราการ, 10130","lat":"13.671","lon":"100.52"},{"name":"ทรงคนอง, อำเภอพระประแดง, สมุทรปราการ, 10130","lat":"13.665","lon":"100.545"},{"name":"บางกระสอบ, อำเภอพระประแดง, สมุทรปราการ, 10130","lat":"13.666","lon":"100.566"},{"name":"บางกอบัว, อำเภอพระประแดง, สมุทรปราการ, 10130","lat":"13.693","lon":"100.577"},{"name":"บางกะเจ้า, อำเภอพระประแดง, สมุทรปราการ, 10130","lat":"13.697","lon":"100.561"},{"name":"บางครุ, อำเภอพระประแดง, สมุทรปราการ, 10130","lat":"13.631","lon":"100.526"},{"name":"บางจาก, อำเภอพระประแดง, สมุทรปราการ, 10130","lat":"13.616","lon":"100.536"},{"name":"บางน้ำผึ้ง, อำเภอพระประแดง, สมุทรปราการ, 10130","lat":"13.679","lon":"100.578"},{"name":"บางพึ่ง, อำเภอพระประแดง, สมุทรปราการ, 10130","lat":"null","lon":"null"},{"name":"บางยอ, อำเภอพระประแดง, สมุทรปราการ, 10130","lat":"13.679","lon":"100.558"},{"name":"บางหญ้าแพรก, อำเภอพระประแดง, สมุทรปราการ, 10130","lat":"13.645","lon":"100.546"},{"name":"บางหัวเสือ, อำเภอพระประแดง, สมุทรปราการ, 10130","lat":"13.625","lon":"100.549"},{"name":"สำโรง, อำเภอพระประแดง, สมุทรปราการ, 10130","lat":"13.659","lon":"100.584"},{"name":"สำโรงใต้, อำเภอพระประแดง, สมุทรปราการ, 10130","lat":"null","lon":"null"},{"name":"สำโรงกลาง, อำเภอพระประแดง, สมุทรปราการ, 10130","lat":"13.653","lon":"100.564"},{"name":"ทุ่งครุ, เขตทุ่งครุ, กรุงเทพมหานคร, 10140","lat":"13.614","lon":"100.497"},{"name":"บางมด, เขตทุ่งครุ, กรุงเทพมหานคร, 10140","lat":"13.651","lon":"100.51"},{"name":"บางปะกอก, เขตราษฎร์บูรณะ, กรุงเทพมหานคร, 10140","lat":"13.675","lon":"100.491"},{"name":"ราษฎร์บูรณะ, เขตราษฎร์บูรณะ, กรุงเทพมหานคร, 10140","lat":"13.67","lon":"100.51"},{"name":"จอมทอง, เขตจอมทอง, กรุงเทพมหานคร, 10150","lat":"13.693","lon":"100.468"},{"name":"บางขุนเทียน, เขตจอมทอง, กรุงเทพมหานคร, 10150","lat":"13.694","lon":"100.45"},{"name":"บางค้อ, เขตจอมทอง, กรุงเทพมหานคร, 10150","lat":"13.702","lon":"100.476"},{"name":"บางมด, เขตจอมทอง, กรุงเทพมหานคร, 10150","lat":"13.672","lon":"100.468"},{"name":"แสมดำ, เขตบางขุนเทียน, กรุงเทพมหานคร, 10150","lat":"13.605","lon":"100.395"},{"name":"ท่าข้าม, เขตบางขุนเทียน, กรุงเทพมหานคร, 10150","lat":"13.555","lon":"100.434"},{"name":"บางบอน, เขตบางบอน, กรุงเทพมหานคร, 10150","lat":"13.646","lon":"100.37"},{"name":"บางแค, เขตบางแค, กรุงเทพมหานคร, 10160","lat":"13.698","lon":"100.409"},{"name":"บางแคเหนือ, เขตบางแค, กรุงเทพมหานคร, 10160","lat":"13.72","lon":"100.4"},{"name":"บางไผ่, เขตบางแค, กรุงเทพมหานคร, 10160","lat":"13.741","lon":"100.385"},{"name":"หลักสอง, เขตบางแค, กรุงเทพมหานคร, 10160","lat":"13.683","lon":"100.396"},{"name":"คลองขวาง, เขตภาษีเจริญ, กรุงเทพมหานคร, 10160","lat":"13.738","lon":"100.423"},{"name":"คูหาสวรรค์, เขตภาษีเจริญ, กรุงเทพมหานคร, 10160","lat":"13.727","lon":"100.457"},{"name":"บางแวก, เขตภาษีเจริญ, กรุงเทพมหานคร, 10160","lat":"13.736","lon":"100.445"},{"name":"บางจาก, เขตภาษีเจริญ, กรุงเทพมหานคร, 10160","lat":"13.727","lon":"100.45"},{"name":"บางด้วน, เขตภาษีเจริญ, กรุงเทพมหานคร, 10160","lat":"13.723","lon":"100.437"},{"name":"บางหว้า, เขตภาษีเจริญ, กรุงเทพมหานคร, 10160","lat":"13.714","lon":"100.443"},{"name":"ปากคลองภาษีเจริญ, เขตภาษีเจริญ, กรุงเทพมหานคร, 10160","lat":"13.722","lon":"100.464"},{"name":"หนองแขม, เขตหนองแขม, กรุงเทพมหานคร, 10160","lat":"13.68","lon":"100.358"},{"name":"หนองค้างพลู, เขตหนองแขม, กรุงเทพมหานคร, 10160","lat":"13.714","lon":"100.351"},{"name":"คลองชักพระ, เขตตลิ่งชัน, กรุงเทพมหานคร, 10170","lat":"13.76","lon":"100.456"},{"name":"ฉิมพลี, เขตตลิ่งชัน, กรุงเทพมหานคร, 10170","lat":"13.786","lon":"100.432"},{"name":"ตลิ่งชัน, เขตตลิ่งชัน, กรุงเทพมหานคร, 10170","lat":"13.789","lon":"100.459"},{"name":"บางเชือกหนัง, เขตตลิ่งชัน, กรุงเทพมหานคร, 10170","lat":"13.751","lon":"100.419"},{"name":"บางพรม, เขตตลิ่งชัน, กรุงเทพมหานคร, 10170","lat":"13.752","lon":"100.442"},{"name":"บางระมาด, เขตตลิ่งชัน, กรุงเทพมหานคร, 10170","lat":"13.767","lon":"100.431"},{"name":"ทวีวัฒนา, เขตทวีวัฒนา, กรุงเทพมหานคร, 10170","lat":"13.758","lon":"100.348"},{"name":"ศาลาธรรมสพน์, เขตทวีวัฒนา, กรุงเทพมหานคร, 10170","lat":"13.783","lon":"100.39"},{"name":"เสาชิงช้า, เขตพระนคร, กรุงเทพมหานคร, 10200","lat":"13.753","lon":"100.5"},{"name":"ชนะสงคราม, เขตพระนคร, กรุงเทพมหานคร, 10200","lat":"13.762","lon":"100.495"},{"name":"ตลาดยอด, เขตพระนคร, กรุงเทพมหานคร, 10200","lat":"13.76","lon":"100.498"},{"name":"บวรนิเวศ, เขตพระนคร, กรุงเทพมหานคร, 10200","lat":"13.757","lon":"100.501"},{"name":"บางขุนพรหม, เขตพระนคร, กรุงเทพมหานคร, 10200","lat":"13.765","lon":"100.505"},{"name":"บ้านพานถม, เขตพระนคร, กรุงเทพมหานคร, 10200","lat":"13.762","lon":"100.503"},{"name":"พระบรมมหาราชวัง, เขตพระนคร, กรุงเทพมหานคร, 10200","lat":"13.751","lon":"100.492"},{"name":"วังบูรพาภิรมย์, เขตพระนคร, กรุงเทพมหานคร, 10200","lat":"13.744","lon":"100.499"},{"name":"วัดราชบพิธ, เขตพระนคร, กรุงเทพมหานคร, 10200","lat":"13.75","lon":"100.499"},{"name":"วัดสามพระยา, เขตพระนคร, กรุงเทพมหานคร, 10200","lat":"13.768","lon":"100.499"},{"name":"ศาลเจ้าพ่อเสือ, เขตพระนคร, กรุงเทพมหานคร, 10200","lat":"13.754","lon":"100.497"},{"name":"สำราญราษฎร์, เขตพระนคร, กรุงเทพมหานคร, 10200","lat":"13.751","lon":"100.503"},{"name":"ดอนเมือง, เขตดอนเมือง, กรุงเทพมหานคร, 10210","lat":"null","lon":"null"},{"name":"สนามบิน, เขตดอนเมือง, กรุงเทพมหานคร, 10210","lat":"null","lon":"null"},{"name":"สีกัน, เขตดอนเมือง, กรุงเทพมหานคร, 10210","lat":"13.925","lon":"100.593"},{"name":"ตลาดบางเขน, เขตหลักสี่, กรุงเทพมหานคร, 10210","lat":"13.871","lon":"100.58"},{"name":"ทุ่งสองห้อง, เขตหลักสี่, กรุงเทพมหานคร, 10210","lat":"13.883","lon":"100.564"},{"name":"ท่าแร้ง, เขตบางเขน, กรุงเทพมหานคร, 10220","lat":"13.866","lon":"100.65"},{"name":"อนุสาวรีย์, เขตบางเขน, กรุงเทพมหานคร, 10220","lat":"13.868","lon":"100.606"},{"name":"คลองถนน, เขตสายไหม, กรุงเทพมหานคร, 10220","lat":"13.898","lon":"100.63"},{"name":"สายไหม, เขตสายไหม, กรุงเทพมหานคร, 10220","lat":"13.921","lon":"100.654"},{"name":"ออเงิน, เขตสายไหม, กรุงเทพมหานคร, 10220","lat":"13.896","lon":"100.672"},{"name":"คันนายาว, เขตคันนายาว, กรุงเทพมหานคร, 10230","lat":"13.821","lon":"100.677"},{"name":"รามอินทรา, เขตคันนายาว, กรุงเทพมหานคร, 10230","lat":"null","lon":"null"},{"name":"จรเข้บัว, เขตลาดพร้าว, กรุงเทพมหานคร, 10230","lat":"13.84","lon":"100.6"},{"name":"ลาดพร้าว, เขตลาดพร้าว, กรุงเทพมหานคร, 10230","lat":"13.811","lon":"100.612"},{"name":"คลองจั่น, เขตบางกะปิ, กรุงเทพมหานคร, 10240","lat":"13.786","lon":"100.635"},{"name":"หัวหมาก, เขตบางกะปิ, กรุงเทพมหานคร, 10240","lat":"13.756","lon":"100.66"},{"name":"คลองกุ่ม, เขตบึงกุ่ม, กรุงเทพมหานคร, 10240","lat":"13.808","lon":"100.65"},{"name":"คลองกุ่ม, เขตบึงกุ่ม, กรุงเทพมหานคร, 10240","lat":"13.808","lon":"100.65"},{"name":"นวมินทร์, เขตบึงกุ่ม, กรุงเทพมหานคร, 10240","lat":"null","lon":"null"},{"name":"นวลจันทร์, เขตบึงกุ่ม, กรุงเทพมหานคร, 10240","lat":"null","lon":"null"},{"name":"สะพานสูง, เขตสะพานสูง, กรุงเทพมหานคร, 10240","lat":"13.761","lon":"100.688"},{"name":"ดอกไม้, เขตประเวศ, กรุงเทพมหานคร, 10250","lat":"13.68","lon":"100.689"},{"name":"ประเวศ, เขตประเวศ, กรุงเทพมหานคร, 10250","lat":"13.719","lon":"100.664"},{"name":"หนองบอน, เขตประเวศ, กรุงเทพมหานคร, 10250","lat":"13.687","lon":"100.656"},{"name":"สวนหลวง, เขตสวนหลวง, กรุงเทพมหานคร, 10250","lat":"13.726","lon":"100.628"},{"name":"บางนา, เขตบางนา, กรุงเทพมหานคร, 10260","lat":"13.672","lon":"100.616"},{"name":"บางจาก, เขตพระโขนง, กรุงเทพมหานคร, 10260","lat":"13.692","lon":"100.626"},{"name":"เทพารักษ์, อำเภอเมืองสมุทรปราการ, สมุทรปราการ, 10270","lat":"13.634","lon":"100.61"},{"name":"บางเมือง, อำเภอเมืองสมุทรปราการ, สมุทรปราการ, 10270","lat":"13.601","lon":"100.622"},{"name":"บางเมืองใหม่, อำเภอเมืองสมุทรปราการ, สมุทรปราการ, 10270","lat":"null","lon":"null"},{"name":"บางโปรง, อำเภอเมืองสมุทรปราการ, สมุทรปราการ, 10270","lat":"13.623","lon":"100.565"},{"name":"บางด้วน, อำเภอเมืองสมุทรปราการ, สมุทรปราการ, 10270","lat":"13.622","lon":"100.581"},{"name":"ปากน้ำ, อำเภอเมืองสมุทรปราการ, สมุทรปราการ, 10270","lat":"null","lon":"null"},{"name":"สำโรงเหนือ, อำเภอเมืองสมุทรปราการ, สมุทรปราการ, 10270","lat":"13.649","lon":"100.617"},{"name":"แพรกษา, อำเภอเมืองสมุทรปราการ, สมุทรปราการ, 10280","lat":"13.564","lon":"100.653"},{"name":"แพรกษาใหม่, อำเภอเมืองสมุทรปราการ, สมุทรปราการ, 10280","lat":"13.559","lon":"100.691"},{"name":"ท้ายบ้าน, อำเภอเมืองสมุทรปราการ, สมุทรปราการ, 10280","lat":"13.556","lon":"100.599"},{"name":"ท้ายบ้านใหม่, อำเภอเมืองสมุทรปราการ, สมุทรปราการ, 10280","lat":"13.572","lon":"100.621"},{"name":"บางปู, อำเภอเมืองสมุทรปราการ, สมุทรปราการ, 10280","lat":"null","lon":"null"},{"name":"บางปูใหม่, อำเภอเมืองสมุทรปราการ, สมุทรปราการ, 10280","lat":"13.526","lon":"100.67"},{"name":"แหลมฟ้าผ่า, อำเภอพระสมุทรเจดีย์, สมุทรปราการ, 10290","lat":"13.539","lon":"100.559"},{"name":"ในคลองบางปลากด, อำเภอพระสมุทรเจดีย์, สมุทรปราการ, 10290","lat":"13.588","lon":"100.541"},{"name":"นาเกลือ, อำเภอพระสมุทรเจดีย์, สมุทรปราการ, 10290","lat":"13.53","lon":"100.494"},{"name":"บ้านคลองสวน, อำเภอพระสมุทรเจดีย์, สมุทรปราการ, 10290","lat":"13.571","lon":"100.476"},{"name":"ปากคลองบางปลากด, อำเภอพระสมุทรเจดีย์, สมุทรปราการ, 10290","lat":"13.606","lon":"100.567"},{"name":"ดุสิต, เขตดุสิต, กรุงเทพมหานคร, 10300","lat":"13.772","lon":"100.513"},{"name":"ถนนนครไชยศรี, เขตดุสิต, กรุงเทพมหานคร, 10300","lat":"13.789","lon":"100.522"},{"name":"วชิรพยาบาล, เขตดุสิต, กรุงเทพมหานคร, 10300","lat":"13.778","lon":"100.505"},{"name":"สวนจิตรลดา, เขตดุสิต, กรุงเทพมหานคร, 10300","lat":"13.767","lon":"100.52"},{"name":"สี่แยกมหานาค, เขตดุสิต, กรุงเทพมหานคร, 10300","lat":"13.758","lon":"100.517"},{"name":"คลองเจ้าคุณสิงห์, เขตวังทองหลาง, กรุงเทพมหานคร, 10310","lat":"null","lon":"null"},{"name":"พลับพลา, เขตวังทองหลาง, กรุงเทพมหานคร, 10310","lat":"null","lon":"null"},{"name":"วังทองหลาง, เขตวังทองหลาง, กรุงเทพมหานคร, 10310","lat":"13.779","lon":"100.609"},{"name":"สะพานสอง, เขตวังทองหลาง, กรุงเทพมหานคร, 10310","lat":"null","lon":"null"},{"name":"บางกะปิ, เขตห้วยขวาง, กรุงเทพมหานคร, 10310","lat":"13.752","lon":"100.586"},{"name":"สามเสนนอก, เขตห้วยขวาง, กรุงเทพมหานคร, 10310","lat":"13.796","lon":"100.579"},{"name":"ห้วยขวาง, เขตห้วยขวาง, กรุงเทพมหานคร, 10320","lat":"13.769","lon":"100.577"},{"name":"ปทุมวัน, เขตปทุมวัน, กรุงเทพมหานคร, 10330","lat":"13.74","lon":"100.535"},{"name":"รองเมือง, เขตปทุมวัน, กรุงเทพมหานคร, 10330","lat":"13.744","lon":"100.52"},{"name":"ลุมพินี, เขตปทุมวัน, กรุงเทพมหานคร, 10330","lat":"13.736","lon":"100.546"},{"name":"วังใหม่, เขตปทุมวัน, กรุงเทพมหานคร, 10330","lat":"13.742","lon":"100.526"},{"name":"ดินแดง, เขตดินแดง, กรุงเทพมหานคร, 10400","lat":"13.778","lon":"100.567"},{"name":"สามเสนใน, เขตพญาไท, กรุงเทพมหานคร, 10400","lat":"13.782","lon":"100.545"},{"name":"ถนนเพชรบุรี, เขตราชเทวี, กรุงเทพมหานคร, 10400","lat":"13.752","lon":"100.559"},{"name":"ถนนพญาไท, เขตราชเทวี, กรุงเทพมหานคร, 10400","lat":"13.757","lon":"100.538"},{"name":"ทุ่งพญาไท, เขตราชเทวี, กรุงเทพมหานคร, 10400","lat":"13.763","lon":"100.53"},{"name":"มักกะสัน, เขตราชเทวี, กรุงเทพมหานคร, 10400","lat":"13.752","lon":"100.528"},{"name":"บางรัก, เขตบางรัก, กรุงเทพมหานคร, 10500","lat":"13.727","lon":"100.527"},{"name":"มหาพฤฒาราม, เขตบางรัก, กรุงเทพมหานคร, 10500","lat":"13.734","lon":"100.52"},{"name":"สี่พระยา, เขตบางรัก, กรุงเทพมหานคร, 10500","lat":"13.725","lon":"100.514"},{"name":"สีลม, เขตบางรัก, กรุงเทพมหานคร, 10500","lat":"13.73","lon":"100.525"},{"name":"สุริยวงศ์, เขตบางรัก, กรุงเทพมหานคร, 10500","lat":"13.724","lon":"100.53"},{"name":"ทรายกองดิน, เขตคลองสามวา, กรุงเทพมหานคร, 10510","lat":"13.854","lon":"100.745"},{"name":"ทรายกองดินใต้, เขตคลองสามวา, กรุงเทพมหานคร, 10510","lat":"13.861","lon":"100.786"},{"name":"บางชัน, เขตคลองสามวา, กรุงเทพมหานคร, 10510","lat":"13.839","lon":"100.7"},{"name":"สามวาตะวันตก, เขตคลองสามวา, กรุงเทพมหานคร, 10510","lat":"13.889","lon":"100.708"},{"name":"สามวาตะวันออก, เขตคลองสามวา, กรุงเทพมหานคร, 10510","lat":"13.896","lon":"100.76"},{"name":"แสนแสบ, เขตมีนบุรี, กรุงเทพมหานคร, 10510","lat":"13.812","lon":"100.774"},{"name":"มีนบุรี, เขตมีนบุรี, กรุงเทพมหานคร, 10510","lat":"13.804","lon":"100.723"},{"name":"ขุมทอง, เขตลาดกระบัง, กรุงเทพมหานคร, 10520","lat":"13.736","lon":"100.855"},{"name":"คลองสองต้นนุ่น, เขตลาดกระบัง, กรุงเทพมหานคร, 10520","lat":"13.753","lon":"100.723"},{"name":"คลองสามประเวศ, เขตลาดกระบัง, กรุงเทพมหานคร, 10520","lat":"13.753","lon":"100.754"},{"name":"ทับยาว, เขตลาดกระบัง, กรุงเทพมหานคร, 10520","lat":"13.728","lon":"100.815"},{"name":"ลาดกระบัง, เขตลาดกระบัง, กรุงเทพมหานคร, 10520","lat":"13.723","lon":"100.771"},{"name":"ลำปลาทิว, เขตลาดกระบัง, กรุงเทพมหานคร, 10520","lat":"13.765","lon":"100.817"},{"name":"โคกแฝด, เขตหนองจอก, กรุงเทพมหานคร, 10530","lat":"13.84","lon":"100.836"},{"name":"กระทุ่มราย, เขตหนองจอก, กรุงเทพมหานคร, 10530","lat":"13.823","lon":"100.897"},{"name":"คลองสิบ, เขตหนองจอก, กรุงเทพมหานคร, 10530","lat":"13.914","lon":"100.82"},{"name":"คลองสิบสอง, เขตหนองจอก, กรุงเทพมหานคร, 10530","lat":"13.914","lon":"100.88"},{"name":"คู้ฝั่งเหนือ, เขตหนองจอก, กรุงเทพมหานคร, 10530","lat":"13.872","lon":"100.81"},{"name":"ลำต้อยติ่ง, เขตหนองจอก, กรุงเทพมหานคร, 10530","lat":"13.781","lon":"100.877"},{"name":"ลำผักชี, เขตหนองจอก, กรุงเทพมหานคร, 10530","lat":"13.797","lon":"100.844"},{"name":"หนองจอก, เขตหนองจอก, กรุงเทพมหานคร, 10530","lat":"13.869","lon":"100.885"},{"name":"บางเสาธง, อำเภอบางเสาธง, สมุทรปราการ, 10540","lat":"13.6","lon":"100.815"},{"name":"ศีรษะจรเข้ใหญ่, อำเภอบางเสาธง, สมุทรปราการ, 10540","lat":"13.641","lon":"100.803"},{"name":"ศีรษะจรเข้น้อย, อำเภอบางเสาธง, สมุทรปราการ, 10540","lat":"13.689","lon":"100.799"},{"name":"บางแก้ว, อำเภอบางพลี, สมุทรปราการ, 10540","lat":"13.642","lon":"100.662"},{"name":"บางโฉลง, อำเภอบางพลี, สมุทรปราการ, 10540","lat":"13.623","lon":"100.755"},{"name":"บางปลา, อำเภอบางพลี, สมุทรปราการ, 10540","lat":"13.561","lon":"100.739"},{"name":"บางพลีใหญ่, อำเภอบางพลี, สมุทรปราการ, 10540","lat":"13.618","lon":"100.694"},{"name":"ราชาเทวะ, อำเภอบางพลี, สมุทรปราการ, 10540","lat":"13.681","lon":"100.733"},{"name":"หนองปรือ, อำเภอบางพลี, สมุทรปราการ, 10540","lat":"13.678","lon":"100.75"},{"name":"คลองด่าน, อำเภอบางบ่อ, สมุทรปราการ, 10550","lat":"13.511","lon":"100.835"},{"name":"เปร็ง, อำเภอบางบ่อ, สมุทรปราการ, 10560","lat":"13.672","lon":"100.881"},{"name":"คลองนิยมยาตรา, อำเภอบางบ่อ, สมุทรปราการ, 10560","lat":"13.624","lon":"100.935"},{"name":"คลองสวน, อำเภอบางบ่อ, สมุทรปราการ, 10560","lat":"13.659","lon":"100.925"},{"name":"บางเพรียง, อำเภอบางบ่อ, สมุทรปราการ, 10560","lat":"13.545","lon":"100.805"},{"name":"บางบ่อ, อำเภอบางบ่อ, สมุทรปราการ, 10560","lat":"13.611","lon":"100.862"},{"name":"บางพลีน้อย, อำเภอบางบ่อ, สมุทรปราการ, 10560","lat":"13.574","lon":"100.9"},{"name":"บ้านระกาศ, อำเภอบางบ่อ, สมุทรปราการ, 10560","lat":"13.639","lon":"100.904"},{"name":"คลองต้นไทร, เขตคลองสาน, กรุงเทพมหานคร, 10600","lat":"13.725","lon":"100.508"},{"name":"คลองสาน, เขตคลองสาน, กรุงเทพมหานคร, 10600","lat":"13.735","lon":"100.504"},{"name":"บางลำภูล่าง, เขตคลองสาน, กรุงเทพมหานคร, 10600","lat":"13.715","lon":"100.501"},{"name":"สมเด็จเจ้าพระยา, เขตคลองสาน, กรุงเทพมหานคร, 10600","lat":"13.731","lon":"100.497"},{"name":"ดาวคะนอง, เขตธนบุรี, กรุงเทพมหานคร, 10600","lat":"null","lon":"null"},{"name":"ตลาดพลู, เขตธนบุรี, กรุงเทพมหานคร, 10600","lat":"13.715","lon":"100.473"},{"name":"บางยี่เรือ, เขตธนบุรี, กรุงเทพมหานคร, 10600","lat":"13.72","lon":"100.482"},{"name":"บุคคโล, เขตธนบุรี, กรุงเทพมหานคร, 10600","lat":"13.707","lon":"100.486"},{"name":"วัดกัลยาณ์, เขตธนบุรี, กรุงเทพมหานคร, 10600","lat":"13.737","lon":"100.493"},{"name":"สำเหร่, เขตธนบุรี, กรุงเทพมหานคร, 10600","lat":"null","lon":"null"},{"name":"หิรัญรูจี, เขตธนบุรี, กรุงเทพมหานคร, 10600","lat":"13.731","lon":"100.49"},{"name":"วัดท่าพระ, เขตบางกอกใหญ่, กรุงเทพมหานคร, 10600","lat":"13.733","lon":"100.475"},{"name":"วัดอรุณ, เขตบางกอกใหญ่, กรุงเทพมหานคร, 10600","lat":"13.743","lon":"100.486"},{"name":"บางขุนนนท์, เขตบางกอกน้อย, กรุงเทพมหานคร, 10700","lat":"13.774","lon":"100.466"},{"name":"บางขุนศรี, เขตบางกอกน้อย, กรุงเทพมหานคร, 10700","lat":"13.76","lon":"100.463"},{"name":"บ้านช่างหล่อ, เขตบางกอกน้อย, กรุงเทพมหานคร, 10700","lat":"13.752","lon":"100.477"},{"name":"ศิริราช, เขตบางกอกน้อย, กรุงเทพมหานคร, 10700","lat":"13.759","lon":"100.481"},{"name":"อรุณอมรินทร์, เขตบางกอกน้อย, กรุงเทพมหานคร, 10700","lat":"13.772","lon":"100.477"},{"name":"บางบำหรุ, เขตบางพลัด, กรุงเทพมหานคร, 10700","lat":"13.781","lon":"100.482"},{"name":"บางพลัด, เขตบางพลัด, กรุงเทพมหานคร, 10700","lat":"13.791","lon":"100.487"},{"name":"บางยี่ขัน, เขตบางพลัด, กรุงเทพมหานคร, 10700","lat":"13.774","lon":"100.492"},{"name":"บางอ้อ, เขตบางพลัด, กรุงเทพมหานคร, 10700","lat":"13.802","lon":"100.512"},{"name":"บางซื่อ, เขตบางซื่อ, กรุงเทพมหานคร, 10800","lat":"13.82","lon":"100.529"},{"name":"วงศ์สว่าง, เขตบางซื่อ, กรุงเทพมหานคร, 10800","lat":"null","lon":"null"},{"name":"เสนานิคม, เขตจตุจักร, กรุงเทพมหานคร, 10900","lat":"null","lon":"null"},{"name":"จตุจักร, เขตจตุจักร, กรุงเทพมหานคร, 10900","lat":"null","lon":"null"},{"name":"จอมพล, เขตจตุจักร, กรุงเทพมหานคร, 10900","lat":"null","lon":"null"},{"name":"จันทรเกษม, เขตจตุจักร, กรุงเทพมหานคร, 10900","lat":"null","lon":"null"},{"name":"ลาดยาว, เขตจตุจักร, กรุงเทพมหานคร, 10900","lat":"13.826","lon":"100.565"},{"name":"ไทรม้า, อำเภอเมืองนนทบุรี, นนทบุรี, 11000","lat":"13.87","lon":"100.472"},{"name":"ตลาดขวัญ, อำเภอเมืองนนทบุรี, นนทบุรี, 11000","lat":"13.85","lon":"100.509"},{"name":"ท่าทราย, อำเภอเมืองนนทบุรี, นนทบุรี, 11000","lat":"13.884","lon":"100.501"},{"name":"บางเขน, อำเภอเมืองนนทบุรี, นนทบุรี, 11000","lat":"13.835","lon":"100.516"},{"name":"บางไผ่, อำเภอเมืองนนทบุรี, นนทบุรี, 11000","lat":"13.823","lon":"100.492"},{"name":"บางกระสอ, อำเภอเมืองนนทบุรี, นนทบุรี, 11000","lat":"13.869","lon":"100.491"},{"name":"บางกร่าง, อำเภอเมืองนนทบุรี, นนทบุรี, 11000","lat":"13.835","lon":"100.438"},{"name":"บางรักน้อย, อำเภอเมืองนนทบุรี, นนทบุรี, 11000","lat":"13.859","lon":"100.464"},{"name":"บางศรีเมือง, อำเภอเมืองนนทบุรี, นนทบุรี, 11000","lat":"13.841","lon":"100.475"},{"name":"สวนใหญ่, อำเภอเมืองนนทบุรี, นนทบุรี, 11000","lat":"13.842","lon":"100.494"},{"name":"โสนลอย, อำเภอบางบัวทอง, นนทบุรี, 11110","lat":"13.914","lon":"100.422"},{"name":"บางคูรัด, อำเภอบางบัวทอง, นนทบุรี, 11110","lat":"13.907","lon":"100.351"},{"name":"บางบัวทอง, อำเภอบางบัวทอง, นนทบุรี, 11110","lat":"13.944","lon":"100.39"},{"name":"บางรักใหญ่, อำเภอบางบัวทอง, นนทบุรี, 11110","lat":"13.878","lon":"100.438"},{"name":"บางรักพัฒนา, อำเภอบางบัวทอง, นนทบุรี, 11110","lat":"13.894","lon":"100.41"},{"name":"พิมลราช, อำเภอบางบัวทอง, นนทบุรี, 11110","lat":"13.934","lon":"100.366"},{"name":"ละหาร, อำเภอบางบัวทอง, นนทบุรี, 11110","lat":"13.964","lon":"100.401"},{"name":"ลำโพ, อำเภอบางบัวทอง, นนทบุรี, 11110","lat":"13.97","lon":"100.416"},{"name":"เกาะเกร็ด, อำเภอปากเกร็ด, นนทบุรี, 11120","lat":"13.91","lon":"100.472"},{"name":"คลองเกลือ, อำเภอปากเกร็ด, นนทบุรี, 11120","lat":"13.902","lon":"100.55"},{"name":"คลองข่อย, อำเภอปากเกร็ด, นนทบุรี, 11120","lat":"13.959","lon":"100.45"},{"name":"คลองพระอุดม, อำเภอปากเกร็ด, นนทบุรี, 11120","lat":"13.93","lon":"100.479"},{"name":"ท่าอิฐ, อำเภอปากเกร็ด, นนทบุรี, 11120","lat":"13.894","lon":"100.48"},{"name":"บางตลาด, อำเภอปากเกร็ด, นนทบุรี, 11120","lat":"13.896","lon":"100.521"},{"name":"บางตะไนย์, อำเภอปากเกร็ด, นนทบุรี, 11120","lat":"13.931","lon":"100.492"},{"name":"บางพลับ, อำเภอปากเกร็ด, นนทบุรี, 11120","lat":"13.929","lon":"100.458"},{"name":"บางพูด, อำเภอปากเกร็ด, นนทบุรี, 11120","lat":"13.927","lon":"100.516"},{"name":"บ้านใหม่, อำเภอปากเกร็ด, นนทบุรี, 11120","lat":"13.93","lon":"100.546"},{"name":"ปากเกร็ด, อำเภอปากเกร็ด, นนทบุรี, 11120","lat":"13.912","lon":"100.506"},{"name":"อ้อมเกร็ด, อำเภอปากเกร็ด, นนทบุรี, 11120","lat":"13.909","lon":"100.453"},{"name":"บางกรวย, อำเภอบางกรวย, นนทบุรี, 11130","lat":"13.809","lon":"100.499"},{"name":"บางขนุน, อำเภอบางกรวย, นนทบุรี, 11130","lat":"13.811","lon":"100.453"},{"name":"บางขุนกอง, อำเภอบางกรวย, นนทบุรี, 11130","lat":"13.821","lon":"100.444"},{"name":"บางคูเวียง, อำเภอบางกรวย, นนทบุรี, 11130","lat":"13.822","lon":"100.417"},{"name":"บางสีทอง, อำเภอบางกรวย, นนทบุรี, 11130","lat":"13.818","lon":"100.479"},{"name":"ปลายบาง, อำเภอบางกรวย, นนทบุรี, 11130","lat":"13.814","lon":"100.402"},{"name":"มหาสวัสดิ์, อำเภอบางกรวย, นนทบุรี, 11130","lat":"13.806","lon":"100.434"},{"name":"วัดชลอ, อำเภอบางกรวย, นนทบุรี, 11130","lat":"13.802","lon":"100.476"},{"name":"ศาลากลาง, อำเภอบางกรวย, นนทบุรี, 11130","lat":"13.81","lon":"100.358"},{"name":"เสาธงหิน, อำเภอบางใหญ่, นนทบุรี, 11140","lat":"13.875","lon":"100.404"},{"name":"บางเลน, อำเภอบางใหญ่, นนทบุรี, 11140","lat":"13.854","lon":"100.434"},{"name":"บางแม่นาง, อำเภอบางใหญ่, นนทบุรี, 11140","lat":"13.868","lon":"100.381"},{"name":"บางใหญ่, อำเภอบางใหญ่, นนทบุรี, 11140","lat":"13.837","lon":"100.375"},{"name":"บางม่วง, อำเภอบางใหญ่, นนทบุรี, 11140","lat":"13.838","lon":"100.406"},{"name":"บ้านใหม่, อำเภอบางใหญ่, นนทบุรี, 11140","lat":"13.861","lon":"100.333"},{"name":"ไทรใหญ่, อำเภอไทรน้อย, นนทบุรี, 11150","lat":"14.085","lon":"100.292"},{"name":"ไทรน้อย, อำเภอไทรน้อย, นนทบุรี, 11150","lat":"13.976","lon":"100.344"},{"name":"ขุนศรี, อำเภอไทรน้อย, นนทบุรี, 11150","lat":"14.005","lon":"100.287"},{"name":"คลองขวาง, อำเภอไทรน้อย, นนทบุรี, 11150","lat":"14.004","lon":"100.306"},{"name":"ทวีวัฒนา, อำเภอไทรน้อย, นนทบุรี, 11150","lat":"13.942","lon":"100.312"},{"name":"ราษฎร์นิยม, อำเภอไทรน้อย, นนทบุรี, 11150","lat":"14.088","lon":"100.329"},{"name":"หนองเพรางาย, อำเภอไทรน้อย, นนทบุรี, 11150","lat":"13.906","lon":"100.322"},{"name":"บางเดื่อ, อำเภอเมืองปทุมธานี, ปทุมธานี, 12000","lat":"13.99","lon":"100.487"},{"name":"บางกะดี, อำเภอเมืองปทุมธานี, ปทุมธานี, 12000","lat":"13.983","lon":"100.537"},{"name":"บางขะแยง, อำเภอเมืองปทุมธานี, ปทุมธานี, 12000","lat":"13.967","lon":"100.523"},{"name":"บางคูวัด, อำเภอเมืองปทุมธานี, ปทุมธานี, 12000","lat":"13.963","lon":"100.495"},{"name":"บางปรอก, อำเภอเมืองปทุมธานี, ปทุมธานี, 12000","lat":"14.012","lon":"100.528"},{"name":"บางพูด, อำเภอเมืองปทุมธานี, ปทุมธานี, 12000","lat":"14.035","lon":"100.572"},{"name":"บางพูน, อำเภอเมืองปทุมธานี, ปทุมธานี, 12000","lat":"13.988","lon":"100.594"},{"name":"บางหลวง, อำเภอเมืองปทุมธานี, ปทุมธานี, 12000","lat":"14.007","lon":"100.509"},{"name":"บ้านใหม่, อำเภอเมืองปทุมธานี, ปทุมธานี, 12000","lat":"13.963","lon":"100.553"},{"name":"บ้านกระแชง, อำเภอเมืองปทุมธานี, ปทุมธานี, 12000","lat":"14.031","lon":"100.552"},{"name":"บ้านกลาง, อำเภอเมืองปทุมธานี, ปทุมธานี, 12000","lat":"14.001","lon":"100.558"},{"name":"บ้านฉาง, อำเภอเมืองปทุมธานี, ปทุมธานี, 12000","lat":"14.029","lon":"100.507"},{"name":"สวนพริกไทย, อำเภอเมืองปทุมธานี, ปทุมธานี, 12000","lat":"14.018","lon":"100.568"},{"name":"หลักหก, อำเภอเมืองปทุมธานี, ปทุมธานี, 12000","lat":"13.963","lon":"100.59"},{"name":"คลองหก, อำเภอธัญบุรี, ปทุมธานี, 12110","lat":"14.0699674","lon":"100.5823823"},{"name":"บึงน้ำรักษ์, อำเภอธัญบุรี, ปทุมธานี, 12110","lat":"14.071","lon":"100.88"},{"name":"บึงสนั่น, อำเภอธัญบุรี, ปทุมธานี, 12110","lat":"14.052","lon":"100.824"},{"name":"รังสิต, อำเภอธัญบุรี, ปทุมธานี, 12110","lat":"14.018","lon":"100.731"},{"name":"ลำผักกูด, อำเภอธัญบุรี, ปทุมธานี, 12110","lat":"14.036","lon":"100.779"},{"name":"คลองเจ็ด, อำเภอคลองหลวง, ปทุมธานี, 12120","lat":"14.125","lon":"100.75"},{"name":"คลองสอง, อำเภอคลองหลวง, ปทุมธานี, 12120","lat":"14.079","lon":"100.642"},{"name":"คลองสาม, อำเภอคลองหลวง, ปทุมธานี, 12120","lat":"14.087","lon":"100.664"},{"name":"คลองสี่, อำเภอคลองหลวง, ปทุมธานี, 12120","lat":"14.097","lon":"100.687"},{"name":"คลองหก, อำเภอคลองหลวง, ปทุมธานี, 12120","lat":"14.117","lon":"100.733"},{"name":"คลองหนึ่ง, อำเภอคลองหลวง, ปทุมธานี, 12120","lat":"14.066","lon":"100.607"},{"name":"คลองห้า, อำเภอคลองหลวง, ปทุมธานี, 12120","lat":"14.106","lon":"100.71"},{"name":"บึงยี่โถ, อำเภอธัญบุรี, ปทุมธานี, 12130","lat":"13.999","lon":"100.687"},{"name":"ประชาธิปัตย์, อำเภอธัญบุรี, ปทุมธานี, 12130","lat":"13.987","lon":"100.632"},{"name":"คูคต, อำเภอลำลูกกา, ปทุมธานี, 12130","lat":"13.955","lon":"100.641"},{"name":"คลองพระอุดม, อำเภอลาดหลุมแก้ว, ปทุมธานี, 12140","lat":"13.99","lon":"100.449"},{"name":"คูขวาง, อำเภอลาดหลุมแก้ว, ปทุมธานี, 12140","lat":"14.068","lon":"100.437"},{"name":"คูบางหลวง, อำเภอลาดหลุมแก้ว, ปทุมธานี, 12140","lat":"14.047","lon":"100.467"},{"name":"บ่อเงิน, อำเภอลาดหลุมแก้ว, ปทุมธานี, 12140","lat":"14.102","lon":"100.383"},{"name":"ระแหง, อำเภอลาดหลุมแก้ว, ปทุมธานี, 12140","lat":"14.059","lon":"100.396"},{"name":"ลาดหลุมแก้ว, อำเภอลาดหลุมแก้ว, ปทุมธานี, 12140","lat":"14.006","lon":"100.41"},{"name":"หน้าไม้, อำเภอลาดหลุมแก้ว, ปทุมธานี, 12140","lat":"14.034","lon":"100.359"},{"name":"บึงคอไห, อำเภอลำลูกกา, ปทุมธานี, 12150","lat":"14.029","lon":"100.862"},{"name":"บึงคำพร้อย, อำเภอลำลูกกา, ปทุมธานี, 12150","lat":"13.961","lon":"100.731"},{"name":"บึงทองหลาง, อำเภอลำลูกกา, ปทุมธานี, 12150","lat":"13.984","lon":"100.82"},{"name":"พืชอุดม, อำเภอลำลูกกา, ปทุมธานี, 12150","lat":"13.975","lon":"100.896"},{"name":"ลาดสวาย, อำเภอลำลูกกา, ปทุมธานี, 12150","lat":"13.958","lon":"100.685"},{"name":"ลำไทร, อำเภอลำลูกกา, ปทุมธานี, 12150","lat":"13.973","lon":"100.861"},{"name":"ลำลูกกา, อำเภอลำลูกกา, ปทุมธานี, 12150","lat":"13.972","lon":"100.774"},{"name":"เชียงรากใหญ่, อำเภอสามโคก, ปทุมธานี, 12160","lat":"14.057","lon":"100.574"},{"name":"เชียงรากน้อย, อำเภอสามโคก, ปทุมธานี, 12160","lat":"14.105","lon":"100.567"},{"name":"กระแชง, อำเภอสามโคก, ปทุมธานี, 12160","lat":"14.043","lon":"100.544"},{"name":"คลองควาย, อำเภอสามโคก, ปทุมธานี, 12160","lat":"14.097","lon":"100.478"},{"name":"ท้ายเกาะ, อำเภอสามโคก, ปทุมธานี, 12160","lat":"14.105","lon":"100.496"},{"name":"บางเตย, อำเภอสามโคก, ปทุมธานี, 12160","lat":"14.062","lon":"100.504"},{"name":"บางโพธิ์เหนือ, อำเภอสามโคก, ปทุมธานี, 12160","lat":"14.042","lon":"100.515"},{"name":"บางกระบือ, อำเภอสามโคก, ปทุมธานี, 12160","lat":"14.103","lon":"100.538"},{"name":"บ้านงิ้ว, อำเภอสามโคก, ปทุมธานี, 12160","lat":"14.084","lon":"100.539"},{"name":"บ้านปทุม, อำเภอสามโคก, ปทุมธานี, 12160","lat":"14.067","lon":"100.546"},{"name":"สามโคก, อำเภอสามโคก, ปทุมธานี, 12160","lat":"14.052","lon":"100.529"},{"name":"นพรัตน์, อำเภอหนองเสือ, ปทุมธานี, 12170","lat":"14.223","lon":"100.866"},{"name":"บึงกาสาม, อำเภอหนองเสือ, ปทุมธานี, 12170","lat":"14.2","lon":"100.824"},{"name":"บึงชำอ้อ, อำเภอหนองเสือ, ปทุมธานี, 12170","lat":"14.172","lon":"100.778"},{"name":"บึงบอน, อำเภอหนองเสือ, ปทุมธานี, 12170","lat":"14.087","lon":"100.778"},{"name":"บึงบา, อำเภอหนองเสือ, ปทุมธานี, 12170","lat":"14.112","lon":"100.824"},{"name":"ศาลาครุ, อำเภอหนองเสือ, ปทุมธานี, 12170","lat":"14.244","lon":"100.928"},{"name":"หนองสามวัง, อำเภอหนองเสือ, ปทุมธานี, 12170","lat":"14.13","lon":"100.881"},{"name":"เกาะเรียน, อำเภอพระนครศรีอยุธยา, พระนครศรีอยุธยา, 13000","lat":"14.318","lon":"100.579"},{"name":"ไผ่ลิง, อำเภอพระนครศรีอยุธยา, พระนครศรีอยุธยา, 13000","lat":"14.356","lon":"100.589"},{"name":"กะมัง, อำเภอพระนครศรีอยุธยา, พระนครศรีอยุธยา, 13000","lat":"14.341","lon":"100.581"},{"name":"คลองตะเคียน, อำเภอพระนครศรีอยุธยา, พระนครศรีอยุธยา, 13000","lat":"14.331","lon":"100.554"},{"name":"คลองสระบัว, อำเภอพระนครศรีอยุธยา, พระนครศรีอยุธยา, 13000","lat":"14.371","lon":"100.563"},{"name":"คลองสวนพลู, อำเภอพระนครศรีอยุธยา, พระนครศรีอยุธยา, 13000","lat":"14.334","lon":"100.595"},{"name":"ท่าวาสุกรี, อำเภอพระนครศรีอยุธยา, พระนครศรีอยุธยา, 13000","lat":"14.361","lon":"100.552"},{"name":"บ้านเกาะ, อำเภอพระนครศรีอยุธยา, พระนครศรีอยุธยา, 13000","lat":"14.389","lon":"100.582"},{"name":"บ้านใหม่, อำเภอพระนครศรีอยุธยา, พระนครศรีอยุธยา, 13000","lat":"14.39","lon":"100.521"},{"name":"บ้านป้อม, อำเภอพระนครศรีอยุธยา, พระนครศรีอยุธยา, 13000","lat":"14.347","lon":"100.529"},{"name":"บ้านรุน, อำเภอพระนครศรีอยุธยา, พระนครศรีอยุธยา, 13000","lat":"null","lon":"null"},{"name":"ประตูชัย, อำเภอพระนครศรีอยุธยา, พระนครศรีอยุธยา, 13000","lat":"14.349","lon":"100.551"},{"name":"ปากกราน, อำเภอพระนครศรีอยุธยา, พระนครศรีอยุธยา, 13000","lat":"14.31","lon":"100.532"},{"name":"ภูเขาทอง, อำเภอพระนครศรีอยุธยา, พระนครศรีอยุธยา, 13000","lat":"14.365","lon":"100.542"},{"name":"ลุมพลี, อำเภอพระนครศรีอยุธยา, พระนครศรีอยุธยา, 13000","lat":"14.376","lon":"100.548"},{"name":"วัดตูม, อำเภอพระนครศรีอยุธยา, พระนครศรีอยุธยา, 13000","lat":"14.39","lon":"100.539"},{"name":"สวนพริก, อำเภอพระนครศรีอยุธยา, พระนครศรีอยุธยา, 13000","lat":"14.391","lon":"100.558"},{"name":"สำเภาล่ม, อำเภอพระนครศรีอยุธยา, พระนครศรีอยุธยา, 13000","lat":"14.34","lon":"100.57"},{"name":"หอรัตนไชย, อำเภอพระนครศรีอยุธยา, พระนครศรีอยุธยา, 13000","lat":"14.354","lon":"100.578"},{"name":"หันตรา, อำเภอพระนครศรีอยุธยา, พระนครศรีอยุธยา, 13000","lat":"14.371","lon":"100.6"},{"name":"หัวรอ, อำเภอพระนครศรีอยุธยา, พระนครศรีอยุธยา, 13000","lat":"14.368","lon":"100.578"},{"name":"เจ้าเจ็ด, อำเภอเสนา, พระนครศรีอยุธยา, 13110","lat":"14.303","lon":"100.378"},{"name":"เจ้าเสด็จ, อำเภอเสนา, พระนครศรีอยุธยา, 13110","lat":"14.331","lon":"100.363"},{"name":"เสนา, อำเภอเสนา, พระนครศรีอยุธยา, 13110","lat":"14.328","lon":"100.404"},{"name":"ชายนา, อำเภอเสนา, พระนครศรีอยุธยา, 13110","lat":"14.258","lon":"100.348"},{"name":"ดอนทอง, อำเภอเสนา, พระนครศรีอยุธยา, 13110","lat":"14.24","lon":"100.306"},{"name":"บางนมโค, อำเภอเสนา, พระนครศรีอยุธยา, 13110","lat":"14.292","lon":"100.424"},{"name":"บ้านแถว, อำเภอเสนา, พระนครศรีอยุธยา, 13110","lat":"14.301","lon":"100.348"},{"name":"บ้านแพน, อำเภอเสนา, พระนครศรีอยุธยา, 13110","lat":"14.342","lon":"100.417"},{"name":"บ้านโพธิ์, อำเภอเสนา, พระนครศรีอยุธยา, 13110","lat":"14.351","lon":"100.394"},{"name":"บ้านกระทุ่ม, อำเภอเสนา, พระนครศรีอยุธยา, 13110","lat":"14.39","lon":"100.383"},{"name":"บ้านหลวง, อำเภอเสนา, พระนครศรีอยุธยา, 13110","lat":"14.278","lon":"100.401"},{"name":"มารวิชัย, อำเภอเสนา, พระนครศรีอยุธยา, 13110","lat":"14.24","lon":"100.371"},{"name":"รางจรเข้, อำเภอเสนา, พระนครศรีอยุธยา, 13110","lat":"14.351","lon":"100.366"},{"name":"ลาดงา, อำเภอเสนา, พระนครศรีอยุธยา, 13110","lat":"14.372","lon":"100.358"},{"name":"สามกอ, อำเภอเสนา, พระนครศรีอยุธยา, 13110","lat":"14.306","lon":"100.399"},{"name":"สามตุ่ม, อำเภอเสนา, พระนครศรีอยุธยา, 13110","lat":"14.24","lon":"100.406"},{"name":"หัวเวียง, อำเภอเสนา, พระนครศรีอยุธยา, 13110","lat":"14.376","lon":"100.402"},{"name":"โคกช้าง, อำเภอผักไห่, พระนครศรีอยุธยา, 13120","lat":"14.5","lon":"100.388"},{"name":"กุฎี, อำเภอผักไห่, พระนครศรีอยุธยา, 13120","lat":"14.439","lon":"100.407"},{"name":"ตาลาน, อำเภอผักไห่, พระนครศรีอยุธยา, 13120","lat":"14.446","lon":"100.387"},{"name":"ท่าดินแดง, อำเภอผักไห่, พระนครศรีอยุธยา, 13120","lat":"14.416","lon":"100.388"},{"name":"บ้านแค, อำเภอผักไห่, พระนครศรีอยุธยา, 13120","lat":"14.495","lon":"100.405"},{"name":"บ้านใหญ่, อำเภอผักไห่, พระนครศรีอยุธยา, 13120","lat":"14.435","lon":"100.384"},{"name":"ผักไห่, อำเภอผักไห่, พระนครศรีอยุธยา, 13120","lat":"14.462","lon":"100.379"},{"name":"ลาดชิด, อำเภอผักไห่, พระนครศรีอยุธยา, 13120","lat":"14.422","lon":"100.358"},{"name":"ลาดน้ำเค็ม, อำเภอผักไห่, พระนครศรีอยุธยา, 13120","lat":"14.482","lon":"100.393"},{"name":"หน้าโคก, อำเภอผักไห่, พระนครศรีอยุธยา, 13120","lat":"14.49","lon":"100.351"},{"name":"อมฤต, อำเภอผักไห่, พระนครศรีอยุธยา, 13120","lat":"14.472","lon":"100.361"},{"name":"โพธิ์เอน, อำเภอท่าเรือ, พระนครศรีอยุธยา, 13130","lat":"14.519","lon":"100.676"},{"name":"จำปา, อำเภอท่าเรือ, พระนครศรีอยุธยา, 13130","lat":"14.55","lon":"100.741"},{"name":"ท่าเจ้าสนุก, อำเภอท่าเรือ, พระนครศรีอยุธยา, 13130","lat":"14.543","lon":"100.717"},{"name":"ท่าเรือ, อำเภอท่าเรือ, พระนครศรีอยุธยา, 13130","lat":"14.566","lon":"100.719"},{"name":"ท่าหลวง, อำเภอท่าเรือ, พระนครศรีอยุธยา, 13130","lat":"14.548","lon":"100.764"},{"name":"บ้านร่อม, อำเภอท่าเรือ, พระนครศรีอยุธยา, 13130","lat":"14.567","lon":"100.698"},{"name":"ปากท่า, อำเภอท่าเรือ, พระนครศรีอยุธยา, 13130","lat":"14.504","lon":"100.692"},{"name":"วังแดง, อำเภอท่าเรือ, พระนครศรีอยุธยา, 13130","lat":"14.541","lon":"100.67"},{"name":"ศาลาลอย, อำเภอท่าเรือ, พระนครศรีอยุธยา, 13130","lat":"14.532","lon":"100.7"},{"name":"หนองขนาก, อำเภอท่าเรือ, พระนครศรีอยุธยา, 13130","lat":"14.512","lon":"100.732"},{"name":"โคกม่วง, อำเภอภาชี, พระนครศรีอยุธยา, 13140","lat":"14.428","lon":"100.75"},{"name":"ไผ่ล้อม, อำเภอภาชี, พระนครศรีอยุธยา, 13140","lat":"14.474","lon":"100.693"},{"name":"กระจิว, อำเภอภาชี, พระนครศรีอยุธยา, 13140","lat":"14.42","lon":"100.69"},{"name":"ดอนหญ้านาง, อำเภอภาชี, พระนครศรีอยุธยา, 13140","lat":"14.478","lon":"100.739"},{"name":"พระแก้ว, อำเภอภาชี, พระนครศรีอยุธยา, 13140","lat":"14.44","lon":"100.675"},{"name":"ภาชี, อำเภอภาชี, พระนครศรีอยุธยา, 13140","lat":"14.442","lon":"100.725"},{"name":"ระโสม, อำเภอภาชี, พระนครศรีอยุธยา, 13140","lat":"14.39","lon":"100.77"},{"name":"หนองน้ำใส, อำเภอภาชี, พระนครศรีอยุธยา, 13140","lat":"14.457","lon":"100.751"},{"name":"เจ้าปลุก, อำเภอมหาราช, พระนครศรีอยุธยา, 13150","lat":"14.584","lon":"100.538"},{"name":"โรงช้าง, อำเภอมหาราช, พระนครศรีอยุธยา, 13150","lat":"14.602","lon":"100.563"},{"name":"กะทุ่ม, อำเภอมหาราช, พระนครศรีอยุธยา, 13150","lat":"14.546","lon":"100.556"},{"name":"ท่าตอ, อำเภอมหาราช, พระนครศรีอยุธยา, 13150","lat":"14.556","lon":"100.511"},{"name":"น้ำเต้า, อำเภอมหาราช, พระนครศรีอยุธยา, 13150","lat":"14.566","lon":"100.542"},{"name":"บางนา, อำเภอมหาราช, พระนครศรีอยุธยา, 13150","lat":"14.576","lon":"100.581"},{"name":"บ้านใหม่, อำเภอมหาราช, พระนครศรีอยุธยา, 13150","lat":"14.531","lon":"100.5"},{"name":"บ้านขวาง, อำเภอมหาราช, พระนครศรีอยุธยา, 13150","lat":"14.576","lon":"100.518"},{"name":"บ้านนา, อำเภอมหาราช, พระนครศรีอยุธยา, 13150","lat":"14.606","lon":"100.51"},{"name":"พิตเพียน, อำเภอมหาราช, พระนครศรีอยุธยา, 13150","lat":"14.608","lon":"100.544"},{"name":"มหาราช, อำเภอมหาราช, พระนครศรีอยุธยา, 13150","lat":"14.552","lon":"100.528"},{"name":"หัวไผ่, อำเภอมหาราช, พระนครศรีอยุธยา, 13150","lat":"14.532","lon":"100.525"},{"name":"เกาะเกิด, อำเภอบางปะอิน, พระนครศรีอยุธยา, 13160","lat":"14.206","lon":"100.539"},{"name":"ขนอนหลวง, อำเภอบางปะอิน, พระนครศรีอยุธยา, 13160","lat":"14.266","lon":"100.542"},{"name":"คลองจิก, อำเภอบางปะอิน, พระนครศรีอยุธยา, 13160","lat":"14.214","lon":"100.597"},{"name":"คุ้งลาน, อำเภอบางปะอิน, พระนครศรีอยุธยา, 13160","lat":"14.295","lon":"100.621"},{"name":"ตลาดเกรียบ, อำเภอบางปะอิน, พระนครศรีอยุธยา, 13160","lat":"null","lon":"null"},{"name":"ตลิ่งชัน, อำเภอบางปะอิน, พระนครศรีอยุธยา, 13160","lat":"14.25","lon":"100.642"},{"name":"บางกระสั้น, อำเภอบางปะอิน, พระนครศรีอยุธยา, 13160","lat":"14.189","lon":"100.565"},{"name":"บางประแดง, อำเภอบางปะอิน, พระนครศรีอยุธยา, 13160","lat":"14.288","lon":"100.544"},{"name":"บ้านเลน, อำเภอบางปะอิน, พระนครศรีอยุธยา, 13160","lat":"14.241","lon":"100.598"},{"name":"บ้านแป้ง, อำเภอบางปะอิน, พระนครศรีอยุธยา, 13160","lat":"14.239","lon":"100.557"},{"name":"บ้านโพ, อำเภอบางปะอิน, พระนครศรีอยุธยา, 13160","lat":"14.272","lon":"100.588"},{"name":"บ้านกรด, อำเภอบางปะอิน, พระนครศรีอยุธยา, 13160","lat":"14.307","lon":"100.604"},{"name":"บ้านพลับ, อำเภอบางปะอิน, พระนครศรีอยุธยา, 13160","lat":"14.223","lon":"100.552"},{"name":"บ้านหว้า, อำเภอบางปะอิน, พระนครศรีอยุธยา, 13160","lat":"14.258","lon":"100.616"},{"name":"วัดยม, อำเภอบางปะอิน, พระนครศรีอยุธยา, 13160","lat":"14.26","lon":"100.568"},{"name":"สามเรือน, อำเภอบางปะอิน, พระนครศรีอยุธยา, 13160","lat":"14.292","lon":"100.647"},{"name":"บ้านสร้าง, อำเภอบางปะอิน, พระนครศรีอยุธยา, 13170","lat":"14.289","lon":"100.668"},{"name":"ข้าวงาม, อำเภอวังน้อย, พระนครศรีอยุธยา, 13170","lat":"14.229","lon":"100.758"},{"name":"ชะแมบ, อำเภอวังน้อย, พระนครศรีอยุธยา, 13170","lat":"14.257","lon":"100.748"},{"name":"บ่อตาโล่, อำเภอวังน้อย, พระนครศรีอยุธยา, 13170","lat":"14.241","lon":"100.674"},{"name":"พยอม, อำเภอวังน้อย, พระนครศรีอยุธยา, 13170","lat":"14.166","lon":"100.632"},{"name":"ลำไทร, อำเภอวังน้อย, พระนครศรีอยุธยา, 13170","lat":"14.2","lon":"100.641"},{"name":"ลำตาเสา, อำเภอวังน้อย, พระนครศรีอยุธยา, 13170","lat":"14.275","lon":"100.708"},{"name":"วังจุฬา, อำเภอวังน้อย, พระนครศรีอยุธยา, 13170","lat":"14.249","lon":"100.8"},{"name":"วังน้อย, อำเภอวังน้อย, พระนครศรีอยุธยา, 13170","lat":"14.201","lon":"100.699"},{"name":"สนับทึบ, อำเภอวังน้อย, พระนครศรีอยุธยา, 13170","lat":"14.298","lon":"100.813"},{"name":"หันตะเภา, อำเภอวังน้อย, พระนครศรีอยุธยา, 13170","lat":"14.304","lon":"100.78"},{"name":"เชียงรากน้อย, อำเภอบางปะอิน, พระนครศรีอยุธยา, 13180","lat":"14.16","lon":"100.594"},{"name":"แคตก, อำเภอบางไทร, พระนครศรีอยุธยา, 13190","lat":"14.287","lon":"100.48"},{"name":"แคออก, อำเภอบางไทร, พระนครศรีอยุธยา, 13190","lat":"14.305","lon":"100.472"},{"name":"โคกช้าง, อำเภอบางไทร, พระนครศรีอยุธยา, 13190","lat":"14.123","lon":"100.492"},{"name":"ไผ่พระ, อำเภอบางไทร, พระนครศรีอยุธยา, 13190","lat":"14.222","lon":"100.432"},{"name":"ไม้ตรา, อำเภอบางไทร, พระนครศรีอยุธยา, 13190","lat":"14.164","lon":"100.473"},{"name":"กกแก้วบูรพา, อำเภอบางไทร, พระนครศรีอยุธยา, 13190","lat":"14.188","lon":"100.435"},{"name":"กระแชง, อำเภอบางไทร, พระนครศรีอยุธยา, 13190","lat":"14.279","lon":"100.505"},{"name":"ช่างเหล็ก, อำเภอบางไทร, พระนครศรีอยุธยา, 13190","lat":"14.278","lon":"100.453"},{"name":"ช้างน้อย, อำเภอบางไทร, พระนครศรีอยุธยา, 13190","lat":"14.252","lon":"100.505"},{"name":"บางไทร, อำเภอบางไทร, พระนครศรีอยุธยา, 13190","lat":"14.191","lon":"100.48"},{"name":"บางพลี, อำเภอบางไทร, พระนครศรีอยุธยา, 13190","lat":"14.212","lon":"100.465"},{"name":"บางยี่โท, อำเภอบางไทร, พระนครศรีอยุธยา, 13190","lat":"14.299","lon":"100.445"},{"name":"บ้านเกาะ, อำเภอบางไทร, พระนครศรีอยุธยา, 13190","lat":"14.236","lon":"100.46"},{"name":"บ้านแป้ง, อำเภอบางไทร, พระนครศรีอยุธยา, 13190","lat":"14.232","lon":"100.507"},{"name":"บ้านกลึง, อำเภอบางไทร, พระนครศรีอยุธยา, 13190","lat":"null","lon":"null"},{"name":"บ้านม้า, อำเภอบางไทร, พระนครศรีอยุธยา, 13190","lat":"14.141","lon":"100.49"},{"name":"สนามชัย, อำเภอบางไทร, พระนครศรีอยุธยา, 13190","lat":"14.213","lon":"100.522"},{"name":"หน้าไม้, อำเภอบางไทร, พระนครศรีอยุธยา, 13190","lat":"14.315","lon":"100.462"},{"name":"ห่อหมก, อำเภอบางไทร, พระนครศรีอยุธยา, 13190","lat":"14.259","lon":"100.474"},{"name":"เสนา, อำเภออุทัย, พระนครศรีอยุธยา, 13210","lat":"14.392","lon":"100.689"},{"name":"โพสาวหาญ, อำเภออุทัย, พระนครศรีอยุธยา, 13210","lat":"14.332","lon":"100.759"},{"name":"ข้าวเม่า, อำเภออุทัย, พระนครศรีอยุธยา, 13210","lat":"14.379","lon":"100.624"},{"name":"คานหาม, อำเภออุทัย, พระนครศรีอยุธยา, 13210","lat":"14.335","lon":"100.641"},{"name":"ธนู, อำเภออุทัย, พระนครศรีอยุธยา, 13210","lat":"14.355","lon":"100.622"},{"name":"บ้านช้าง, อำเภออุทัย, พระนครศรีอยุธยา, 13210","lat":"14.322","lon":"100.68"},{"name":"บ้านหีบ, อำเภออุทัย, พระนครศรีอยุธยา, 13210","lat":"14.372","lon":"100.712"},{"name":"สามบัณฑิต, อำเภออุทัย, พระนครศรีอยุธยา, 13210","lat":"14.349","lon":"100.742"},{"name":"หนองไม้ซุง, อำเภออุทัย, พระนครศรีอยุธยา, 13210","lat":"14.376","lon":"100.751"},{"name":"หนองน้ำส้ม, อำเภออุทัย, พระนครศรีอยุธยา, 13210","lat":"14.32","lon":"100.714"},{"name":"อุทัย, อำเภออุทัย, พระนครศรีอยุธยา, 13210","lat":"14.373","lon":"100.655"},{"name":"เสาธง, อำเภอบางปะหัน, พระนครศรีอยุธยา, 13220","lat":"14.496","lon":"100.549"},{"name":"โพธิ์สามต้น, อำเภอบางปะหัน, พระนครศรีอยุธยา, 13220","lat":"14.421","lon":"100.547"},{"name":"ขยาย, อำเภอบางปะหัน, พระนครศรีอยุธยา, 13220","lat":"14.414","lon":"100.564"},{"name":"ขวัญเมือง, อำเภอบางปะหัน, พระนครศรีอยุธยา, 13220","lat":"14.444","lon":"100.536"},{"name":"ตานิม, อำเภอบางปะหัน, พระนครศรีอยุธยา, 13220","lat":"14.491","lon":"100.532"},{"name":"ตาลเอน, อำเภอบางปะหัน, พระนครศรีอยุธยา, 13220","lat":"14.524","lon":"100.563"},{"name":"ทับน้ำ, อำเภอบางปะหัน, พระนครศรีอยุธยา, 13220","lat":"14.464","lon":"100.508"},{"name":"ทางกลาง, อำเภอบางปะหัน, พระนครศรีอยุธยา, 13220","lat":"14.513","lon":"100.544"},{"name":"บางเดื่อ, อำเภอบางปะหัน, พระนครศรีอยุธยา, 13220","lat":"14.436","lon":"100.576"},{"name":"บางเพลิง, อำเภอบางปะหัน, พระนครศรีอยุธยา, 13220","lat":"14.5","lon":"100.577"},{"name":"บางนางร้า, อำเภอบางปะหัน, พระนครศรีอยุธยา, 13220","lat":"14.474","lon":"100.531"},{"name":"บางปะหัน, อำเภอบางปะหัน, พระนครศรีอยุธยา, 13220","lat":"14.458","lon":"100.558"},{"name":"บ้านขล้อ, อำเภอบางปะหัน, พระนครศรีอยุธยา, 13220","lat":"14.532","lon":"100.586"},{"name":"บ้านม้า, อำเภอบางปะหัน, พระนครศรีอยุธยา, 13220","lat":"14.492","lon":"100.51"},{"name":"บ้านลี่, อำเภอบางปะหัน, พระนครศรีอยุธยา, 13220","lat":"14.449","lon":"100.521"},{"name":"พุทเลา, อำเภอบางปะหัน, พระนครศรีอยุธยา, 13220","lat":"14.419","lon":"100.525"},{"name":"หันสัง, อำเภอบางปะหัน, พระนครศรีอยุธยา, 13220","lat":"14.512","lon":"100.517"},{"name":"คลองพระยาบันลือ, อำเภอลาดบัวหลวง, พระนครศรีอยุธยา, 13230","lat":"14.134","lon":"100.368"},{"name":"คู้สลอด, อำเภอลาดบัวหลวง, พระนครศรีอยุธยา, 13230","lat":"14.196","lon":"100.369"},{"name":"พระยาบันลือ, อำเภอลาดบัวหลวง, พระนครศรีอยุธยา, 13230","lat":"14.161","lon":"100.395"},{"name":"ลาดบัวหลวง, อำเภอลาดบัวหลวง, พระนครศรีอยุธยา, 13230","lat":"14.193","lon":"100.319"},{"name":"สามเมือง, อำเภอลาดบัวหลวง, พระนครศรีอยุธยา, 13230","lat":"14.153","lon":"100.297"},{"name":"สิงหนาท, อำเภอลาดบัวหลวง, พระนครศรีอยุธยา, 13230","lat":"14.132","lon":"100.423"},{"name":"หลักชัย, อำเภอลาดบัวหลวง, พระนครศรีอยุธยา, 13230","lat":"14.195","lon":"100.277"},{"name":"คลองน้อย, อำเภอบ้านแพรก, พระนครศรีอยุธยา, 13240","lat":"14.627","lon":"100.553"},{"name":"บ้านแพรก, อำเภอบ้านแพรก, พระนครศรีอยุธยา, 13240","lat":"14.64","lon":"100.585"},{"name":"บ้านใหม่, อำเภอบ้านแพรก, พระนครศรีอยุธยา, 13240","lat":"14.655","lon":"100.586"},{"name":"สองห้อง, อำเภอบ้านแพรก, พระนครศรีอยุธยา, 13240","lat":"14.646","lon":"100.519"},{"name":"สำพะเนียง, อำเภอบ้านแพรก, พระนครศรีอยุธยา, 13240","lat":"14.638","lon":"100.567"},{"name":"ไทรน้อย, อำเภอบางบาล, พระนครศรีอยุธยา, 13250","lat":"14.407","lon":"100.486"},{"name":"กบเจา, อำเภอบางบาล, พระนครศรีอยุธยา, 13250","lat":"14.347","lon":"100.485"},{"name":"ทางช้าง, อำเภอบางบาล, พระนครศรีอยุธยา, 13250","lat":"14.375","lon":"100.432"},{"name":"น้ำเต้า, อำเภอบางบาล, พระนครศรีอยุธยา, 13250","lat":"14.339","lon":"100.438"},{"name":"บางชะนี, อำเภอบางบาล, พระนครศรีอยุธยา, 13250","lat":"14.429","lon":"100.461"},{"name":"บางบาล, อำเภอบางบาล, พระนครศรีอยุธยา, 13250","lat":"14.41","lon":"100.464"},{"name":"บางหลวง, อำเภอบางบาล, พระนครศรีอยุธยา, 13250","lat":"14.403","lon":"100.433"},{"name":"บางหลวงโดด, อำเภอบางบาล, พระนครศรีอยุธยา, 13250","lat":"14.419","lon":"100.43"},{"name":"บางหัก, อำเภอบางบาล, พระนครศรีอยุธยา, 13250","lat":"14.436","lon":"100.439"},{"name":"บ้านกุ่ม, อำเภอบางบาล, พระนครศรีอยุธยา, 13250","lat":"14.436","lon":"100.492"},{"name":"บ้านคลัง, อำเภอบางบาล, พระนครศรีอยุธยา, 13250","lat":"14.347","lon":"100.457"},{"name":"พระขาว, อำเภอบางบาล, พระนครศรีอยุธยา, 13250","lat":"14.328","lon":"100.482"},{"name":"มหาพราหมณ์, อำเภอบางบาล, พระนครศรีอยุธยา, 13250","lat":"14.364","lon":"100.505"},{"name":"วัดตะกู, อำเภอบางบาล, พระนครศรีอยุธยา, 13250","lat":"14.388","lon":"100.424"},{"name":"วัดยม, อำเภอบางบาล, พระนครศรีอยุธยา, 13250","lat":"14.39","lon":"100.497"},{"name":"สะพานไทย, อำเภอบางบาล, พระนครศรีอยุธยา, 13250","lat":"14.363","lon":"100.486"},{"name":"แม่ลา, อำเภอนครหลวง, พระนครศรีอยุธยา, 13260","lat":"14.503","lon":"100.619"},{"name":"คลองสะแก, อำเภอนครหลวง, พระนครศรีอยุธยา, 13260","lat":"14.424","lon":"100.604"},{"name":"ท่าช้าง, อำเภอนครหลวง, พระนครศรีอยุธยา, 13260","lat":"14.511","lon":"100.652"},{"name":"นครหลวง, อำเภอนครหลวง, พระนครศรีอยุธยา, 13260","lat":"14.469","lon":"100.622"},{"name":"บ่อโพง, อำเภอนครหลวง, พระนครศรีอยุธยา, 13260","lat":"14.406","lon":"100.603"},{"name":"บางพระครู, อำเภอนครหลวง, พระนครศรีอยุธยา, 13260","lat":"14.483","lon":"100.613"},{"name":"บางระกำ, อำเภอนครหลวง, พระนครศรีอยุธยา, 13260","lat":"14.466","lon":"100.589"},{"name":"บ้านชุ้ง, อำเภอนครหลวง, พระนครศรีอยุธยา, 13260","lat":"14.458","lon":"100.655"},{"name":"ปากจั่น, อำเภอนครหลวง, พระนครศรีอยุธยา, 13260","lat":"14.44","lon":"100.62"},{"name":"พระนอน, อำเภอนครหลวง, พระนครศรีอยุธยา, 13260","lat":"14.485","lon":"100.65"},{"name":"สามไถ, อำเภอนครหลวง, พระนครศรีอยุธยา, 13260","lat":"14.489","lon":"100.675"},{"name":"หนองปลิง, อำเภอนครหลวง, พระนครศรีอยุธยา, 13260","lat":"14.423","lon":"100.64"},{"name":"เต่าเล่า, อำเภอบางซ้าย, พระนครศรีอยุธยา, 13270","lat":"14.34","lon":"100.319"},{"name":"เทพมงคล, อำเภอบางซ้าย, พระนครศรีอยุธยา, 13270","lat":"14.236","lon":"100.258"},{"name":"แก้วฟ้า, อำเภอบางซ้าย, พระนครศรีอยุธยา, 13270","lat":"14.313","lon":"100.326"},{"name":"บางซ้าย, อำเภอบางซ้าย, พระนครศรีอยุธยา, 13270","lat":"14.314","lon":"100.286"},{"name":"ปลายกลัด, อำเภอบางซ้าย, พระนครศรีอยุธยา, 13270","lat":"14.382","lon":"100.315"},{"name":"วังพัฒนา, อำเภอบางซ้าย, พระนครศรีอยุธยา, 13270","lat":"14.272","lon":"100.296"},{"name":"จักราช, อำเภอผักไห่, พระนครศรีอยุธยา, 13280","lat":"14.447","lon":"100.34"},{"name":"ดอนลาน, อำเภอผักไห่, พระนครศรีอยุธยา, 13280","lat":"14.433","lon":"100.286"},{"name":"นาคู, อำเภอผักไห่, พระนครศรีอยุธยา, 13280","lat":"14.468","lon":"100.272"},{"name":"ลำตะเคียน, อำเภอผักไห่, พระนครศรีอยุธยา, 13280","lat":"14.419","lon":"100.318"},{"name":"หนองน้ำใหญ่, อำเภอผักไห่, พระนครศรีอยุธยา, 13280","lat":"14.474","lon":"100.311"},{"name":"เชียงรากน้อย, อำเภอบางไทร, พระนครศรีอยุธยา, 13290","lat":"14.134","lon":"100.561"},{"name":"โพแตง, อำเภอบางไทร, พระนครศรีอยุธยา, 13290","lat":"null","lon":"null"},{"name":"ช้างใหญ่, อำเภอบางไทร, พระนครศรีอยุธยา, 13290","lat":"14.161","lon":"100.522"},{"name":"ราชคราม, อำเภอบางไทร, พระนครศรีอยุธยา, 13290","lat":"14.186","lon":"100.519"},{"name":"โพสะ, อำเภอเมืองอ่างทอง, อ่างทอง, 14000","lat":"14.542","lon":"100.457"},{"name":"คลองวัว, อำเภอเมืองอ่างทอง, อ่างทอง, 14000","lat":"14.578","lon":"100.432"},{"name":"จำปาหล่อ, อำเภอเมืองอ่างทอง, อ่างทอง, 14000","lat":"14.539","lon":"100.433"},{"name":"ตลาดกรวด, อำเภอเมืองอ่างทอง, อ่างทอง, 14000","lat":"14.619","lon":"100.478"},{"name":"ตลาดหลวง, อำเภอเมืองอ่างทอง, อ่างทอง, 14000","lat":"14.592","lon":"100.453"},{"name":"บางแก้ว, อำเภอเมืองอ่างทอง, อ่างทอง, 14000","lat":"14.588","lon":"100.459"},{"name":"บ้านแห, อำเภอเมืองอ่างทอง, อ่างทอง, 14000","lat":"14.565","lon":"100.434"},{"name":"บ้านรี, อำเภอเมืองอ่างทอง, อ่างทอง, 14000","lat":"14.605","lon":"100.485"},{"name":"บ้านอิฐ, อำเภอเมืองอ่างทอง, อ่างทอง, 14000","lat":"14.583","lon":"100.476"},{"name":"ป่างิ้ว, อำเภอเมืองอ่างทอง, อ่างทอง, 14000","lat":"14.612","lon":"100.413"},{"name":"มหาดไทย, อำเภอเมืองอ่างทอง, อ่างทอง, 14000","lat":"14.568","lon":"100.4"},{"name":"ย่านซื่อ, อำเภอเมืองอ่างทอง, อ่างทอง, 14000","lat":"14.619","lon":"100.447"},{"name":"ศาลาแดง, อำเภอเมืองอ่างทอง, อ่างทอง, 14000","lat":"14.599","lon":"100.445"},{"name":"หัวไผ่, อำเภอเมืองอ่างทอง, อ่างทอง, 14000","lat":"14.553","lon":"100.474"},{"name":"ไผ่จำศิล, อำเภอวิเศษชัยชาญ, อ่างทอง, 14110","lat":"null","lon":"null"},{"name":"ไผ่ดำพัฒนา, อำเภอวิเศษชัยชาญ, อ่างทอง, 14110","lat":"14.529","lon":"100.392"},{"name":"ไผ่วง, อำเภอวิเศษชัยชาญ, อ่างทอง, 14110","lat":"14.505","lon":"100.251"},{"name":"คลองขนาก, อำเภอวิเศษชัยชาญ, อ่างทอง, 14110","lat":"14.53","lon":"100.337"},{"name":"ตลาดใหม่, อำเภอวิเศษชัยชาญ, อ่างทอง, 14110","lat":"14.542","lon":"100.315"},{"name":"ท่าช้าง, อำเภอวิเศษชัยชาญ, อ่างทอง, 14110","lat":"14.562","lon":"100.333"},{"name":"บางจัก, อำเภอวิเศษชัยชาญ, อ่างทอง, 14110","lat":"14.502","lon":"100.33"},{"name":"ม่วงเตี้ย, อำเภอวิเศษชัยชาญ, อ่างทอง, 14110","lat":"14.636","lon":"100.323"},{"name":"ยี่ล้น, อำเภอวิเศษชัยชาญ, อ่างทอง, 14110","lat":"14.579","lon":"100.301"},{"name":"ศาลเจ้าโรงทอง, อำเภอวิเศษชัยชาญ, อ่างทอง, 14110","lat":"14.597","lon":"100.34"},{"name":"สาวร้องไห้, อำเภอวิเศษชัยชาญ, อ่างทอง, 14110","lat":"14.546","lon":"100.223"},{"name":"สี่ร้อย, อำเภอวิเศษชัยชาญ, อ่างทอง, 14110","lat":"14.55","lon":"100.37"},{"name":"หลักแก้ว, อำเภอวิเศษชัยชาญ, อ่างทอง, 14110","lat":"14.517","lon":"100.289"},{"name":"ห้วยคันแหลน, อำเภอวิเศษชัยชาญ, อ่างทอง, 14110","lat":"14.555","lon":"100.294"},{"name":"หัวตะพาน, อำเภอวิเศษชัยชาญ, อ่างทอง, 14110","lat":"14.583","lon":"100.387"},{"name":"โคกพุทรา, อำเภอโพธิ์ทอง, อ่างทอง, 14120","lat":"14.689","lon":"100.375"},{"name":"โพธิ์รังนก, อำเภอโพธิ์ทอง, อ่างทอง, 14120","lat":"14.614","lon":"100.378"},{"name":"คำหยาด, อำเภอโพธิ์ทอง, อ่างทอง, 14120","lat":"14.676","lon":"100.323"},{"name":"ทางพระ, อำเภอโพธิ์ทอง, อ่างทอง, 14120","lat":"14.677","lon":"100.36"},{"name":"บ่อแร่, อำเภอโพธิ์ทอง, อ่างทอง, 14120","lat":"14.637","lon":"100.372"},{"name":"บางเจ้าฉ่า, อำเภอโพธิ์ทอง, อ่างทอง, 14120","lat":"14.695","lon":"100.398"},{"name":"บางพลับ, อำเภอโพธิ์ทอง, อ่างทอง, 14120","lat":"14.641","lon":"100.406"},{"name":"บางระกำ, อำเภอโพธิ์ทอง, อ่างทอง, 14120","lat":"14.691","lon":"100.428"},{"name":"ยางช้าย, อำเภอโพธิ์ทอง, อ่างทอง, 14120","lat":"null","lon":"null"},{"name":"รำมะสัก, อำเภอโพธิ์ทอง, อ่างทอง, 14120","lat":"14.679","lon":"100.242"},{"name":"สามง่าม, อำเภอโพธิ์ทอง, อ่างทอง, 14120","lat":"14.638","lon":"100.389"},{"name":"หนองแม่ไก่, อำเภอโพธิ์ทอง, อ่างทอง, 14120","lat":"14.708","lon":"100.351"},{"name":"องครักษ์, อำเภอโพธิ์ทอง, อ่างทอง, 14120","lat":"14.731","lon":"100.398"},{"name":"อ่างแก้ว, อำเภอโพธิ์ทอง, อ่างทอง, 14120","lat":"14.666","lon":"100.393"},{"name":"อินทประมูล, อำเภอโพธิ์ทอง, อ่างทอง, 14120","lat":"14.651","lon":"100.425"},{"name":"เอกราช, อำเภอป่าโมก, อ่างทอง, 14130","lat":"14.477","lon":"100.426"},{"name":"โผงเผง, อำเภอป่าโมก, อ่างทอง, 14130","lat":"14.455","lon":"100.442"},{"name":"โรงช้าง, อำเภอป่าโมก, อ่างทอง, 14130","lat":"14.488","lon":"100.472"},{"name":"นรสิงห์, อำเภอป่าโมก, อ่างทอง, 14130","lat":"14.518","lon":"100.431"},{"name":"บางเสด็จ, อำเภอป่าโมก, อ่างทอง, 14130","lat":"14.461","lon":"100.473"},{"name":"บางปลากด, อำเภอป่าโมก, อ่างทอง, 14130","lat":"14.509","lon":"100.461"},{"name":"ป่าโมก, อำเภอป่าโมก, อ่างทอง, 14130","lat":"14.501","lon":"100.437"},{"name":"สายทอง, อำเภอป่าโมก, อ่างทอง, 14130","lat":"14.513","lon":"100.484"},{"name":"เทวราช, อำเภอไชโย, อ่างทอง, 14140","lat":"14.646","lon":"100.449"},{"name":"ไชโย, อำเภอไชโย, อ่างทอง, 14140","lat":"14.707","lon":"100.436"},{"name":"ไชยภูมิ, อำเภอไชโย, อ่างทอง, 14140","lat":"14.705","lon":"100.465"},{"name":"จรเข้ร้อง, อำเภอไชโย, อ่างทอง, 14140","lat":"14.658","lon":"100.482"},{"name":"ชะไว, อำเภอไชโย, อ่างทอง, 14140","lat":"14.687","lon":"100.494"},{"name":"ชัยฤทธิ์, อำเภอไชโย, อ่างทอง, 14140","lat":"14.637","lon":"100.472"},{"name":"ตรีณรงค์, อำเภอไชโย, อ่างทอง, 14140","lat":"14.676","lon":"100.498"},{"name":"ราชสถิตย์, อำเภอไชโย, อ่างทอง, 14140","lat":"14.672","lon":"100.456"},{"name":"หลักฟ้า, อำเภอไชโย, อ่างทอง, 14140","lat":"14.684","lon":"100.462"},{"name":"แสวงหา, อำเภอแสวงหา, อ่างทอง, 14150","lat":"14.763","lon":"100.31"},{"name":"จำลอง, อำเภอแสวงหา, อ่างทอง, 14150","lat":"14.741","lon":"100.364"},{"name":"บ้านพราน, อำเภอแสวงหา, อ่างทอง, 14150","lat":"14.709","lon":"100.306"},{"name":"วังน้ำเย็น, อำเภอแสวงหา, อ่างทอง, 14150","lat":"14.738","lon":"100.221"},{"name":"ศรีพราน, อำเภอแสวงหา, อ่างทอง, 14150","lat":"14.725","lon":"100.328"},{"name":"สีบัวทอง, อำเภอแสวงหา, อ่างทอง, 14150","lat":"14.769","lon":"100.248"},{"name":"ห้วยไผ่, อำเภอแสวงหา, อ่างทอง, 14150","lat":"14.789","lon":"100.324"},{"name":"โพธิ์ม่วงพันธ์, อำเภอสามโก้, อ่างทอง, 14160","lat":"14.561","lon":"100.254"},{"name":"มงคลธรรมนิมิต, อำเภอสามโก้, อ่างทอง, 14160","lat":"14.64","lon":"100.26"},{"name":"ราษฎรพัฒนา, อำเภอสามโก้, อ่างทอง, 14160","lat":"14.605","lon":"100.293"},{"name":"สามโก้, อำเภอสามโก้, อ่างทอง, 14160","lat":"14.606","lon":"100.252"},{"name":"อบทม, อำเภอสามโก้, อ่างทอง, 14160","lat":"14.581","lon":"100.246"},{"name":"เขาสามยอด, อำเภอเมืองลพบุรี, ลพบุรี, 15000","lat":"14.83","lon":"100.671"},{"name":"โก่งธนู, อำเภอเมืองลพบุรี, ลพบุรี, 15000","lat":"14.674","lon":"100.597"},{"name":"โคกลำพาน, อำเภอเมืองลพบุรี, ลพบุรี, 15000","lat":"14.74","lon":"100.64"},{"name":"โพธิ์เก้าต้น, อำเภอเมืองลพบุรี, ลพบุรี, 15000","lat":"14.775","lon":"100.599"},{"name":"โพธิ์ตรุ, อำเภอเมืองลพบุรี, ลพบุรี, 15000","lat":"14.725","lon":"100.532"},{"name":"กกโก, อำเภอเมืองลพบุรี, ลพบุรี, 15000","lat":"14.767","lon":"100.684"},{"name":"งิ้วราย, อำเภอเมืองลพบุรี, ลพบุรี, 15000","lat":"14.704","lon":"100.592"},{"name":"ดอนโพธิ์, อำเภอเมืองลพบุรี, ลพบุรี, 15000","lat":"14.691","lon":"100.627"},{"name":"ตะลุง, อำเภอเมืองลพบุรี, ลพบุรี, 15000","lat":"14.737","lon":"100.601"},{"name":"ถนนใหญ่, อำเภอเมืองลพบุรี, ลพบุรี, 15000","lat":"14.831","lon":"100.629"},{"name":"ทะเลชุบศร, อำเภอเมืองลพบุรี, ลพบุรี, 15000","lat":"14.804","lon":"100.634"},{"name":"ท่าแค, อำเภอเมืองลพบุรี, ลพบุรี, 15000","lat":"14.865","lon":"100.619"},{"name":"ท้ายตลาด, อำเภอเมืองลพบุรี, ลพบุรี, 15000","lat":"14.725","lon":"100.563"},{"name":"ท่าศาลา, อำเภอเมืองลพบุรี, ลพบุรี, 15000","lat":"14.792","lon":"100.671"},{"name":"ท่าหิน, อำเภอเมืองลพบุรี, ลพบุรี, 15000","lat":"14.802","lon":"100.611"},{"name":"นิคมสร้างตนเอง, อำเภอเมืองลพบุรี, ลพบุรี, 15000","lat":"14.824","lon":"100.732"},{"name":"บางขันหมาก, อำเภอเมืองลพบุรี, ลพบุรี, 15000","lat":"14.82","lon":"100.583"},{"name":"บ้านข่อย, อำเภอเมืองลพบุรี, ลพบุรี, 15000","lat":"14.683","lon":"100.529"},{"name":"ป่าตาล, อำเภอเมืองลพบุรี, ลพบุรี, 15000","lat":"14.778","lon":"100.64"},{"name":"พรหมมาสตร์, อำเภอเมืองลพบุรี, ลพบุรี, 15000","lat":"14.82","lon":"100.603"},{"name":"สี่คลอง, อำเภอเมืองลพบุรี, ลพบุรี, 15000","lat":"14.681","lon":"100.563"},{"name":"เชียงงา, อำเภอบ้านหมี่, ลพบุรี, 15110","lat":"null","lon":"null"},{"name":"โพนทอง, อำเภอบ้านหมี่, ลพบุรี, 15110","lat":"15.04","lon":"100.559"},{"name":"ไผ่ใหญ่, อำเภอบ้านหมี่, ลพบุรี, 15110","lat":"15.089","lon":"100.459"},{"name":"ชอนม่วง, อำเภอบ้านหมี่, ลพบุรี, 15110","lat":"15.21","lon":"100.61"},{"name":"ดงพลับ, อำเภอบ้านหมี่, ลพบุรี, 15110","lat":"15.059","lon":"100.63"},{"name":"ดอนดึง, อำเภอบ้านหมี่, ลพบุรี, 15110","lat":"15.146","lon":"100.612"},{"name":"บางกะพี้, อำเภอบ้านหมี่, ลพบุรี, 15110","lat":"15.073","lon":"100.613"},{"name":"บางพึ่ง, อำเภอบ้านหมี่, ลพบุรี, 15110","lat":"14.994","lon":"100.496"},{"name":"บ้านกล้วย, อำเภอบ้านหมี่, ลพบุรี, 15110","lat":"15.016","lon":"100.578"},{"name":"บ้านทราย, อำเภอบ้านหมี่, ลพบุรี, 15110","lat":"15.034","lon":"100.582"},{"name":"บ้านหมี่, อำเภอบ้านหมี่, ลพบุรี, 15110","lat":"null","lon":"null"},{"name":"พุคา, อำเภอบ้านหมี่, ลพบุรี, 15110","lat":"14.953","lon":"100.598"},{"name":"มหาสอน, อำเภอบ้านหมี่, ลพบุรี, 15110","lat":"15.021","lon":"100.484"},{"name":"สนามแจง, อำเภอบ้านหมี่, ลพบุรี, 15110","lat":"15.008","lon":"100.538"},{"name":"สายห้วยแก้ว, อำเภอบ้านหมี่, ลพบุรี, 15110","lat":"15.095","lon":"100.509"},{"name":"หนองเต่า, อำเภอบ้านหมี่, ลพบุรี, 15110","lat":"14.963","lon":"100.555"},{"name":"หนองเมือง, อำเภอบ้านหมี่, ลพบุรี, 15110","lat":"15.124","lon":"100.569"},{"name":"หนองกระเบียน, อำเภอบ้านหมี่, ลพบุรี, 15110","lat":"15.148","lon":"100.534"},{"name":"หนองทรายขาว, อำเภอบ้านหมี่, ลพบุรี, 15110","lat":"14.996","lon":"100.597"},{"name":"หินปัก, อำเภอบ้านหมี่, ลพบุรี, 15110","lat":"15.048","lon":"100.592"},{"name":"เกาะแก้ว, อำเภอโคกสำโรง, ลพบุรี, 15120","lat":"15.136","lon":"100.736"},{"name":"เพนียด, อำเภอโคกสำโรง, ลพบุรี, 15120","lat":"15.036","lon":"100.812"},{"name":"โคกสำโรง, อำเภอโคกสำโรง, ลพบุรี, 15120","lat":"15.071","lon":"100.713"},{"name":"คลองเกตุ, อำเภอโคกสำโรง, ลพบุรี, 15120","lat":"14.967","lon":"100.802"},{"name":"ดงมะรุม, อำเภอโคกสำโรง, ลพบุรี, 15120","lat":"15.127","lon":"100.877"},{"name":"ถลุงเหล็ก, อำเภอโคกสำโรง, ลพบุรี, 15120","lat":"15.064","lon":"100.68"},{"name":"วังเพลิง, อำเภอโคกสำโรง, ลพบุรี, 15120","lat":"15.062","lon":"100.841"},{"name":"วังขอนขว้าง, อำเภอโคกสำโรง, ลพบุรี, 15120","lat":"15.023","lon":"100.697"},{"name":"วังจั่น, อำเภอโคกสำโรง, ลพบุรี, 15120","lat":"15.102","lon":"100.673"},{"name":"สะแกราบ, อำเภอโคกสำโรง, ลพบุรี, 15120","lat":"15.12","lon":"100.797"},{"name":"หนองแขม, อำเภอโคกสำโรง, ลพบุรี, 15120","lat":"15.143","lon":"100.685"},{"name":"หลุมข้าว, อำเภอโคกสำโรง, ลพบุรี, 15120","lat":"15.024","lon":"100.642"},{"name":"ห้วยโป่ง, อำเภอโคกสำโรง, ลพบุรี, 15120","lat":"14.981","lon":"100.677"},{"name":"เกาะรัง, อำเภอชัยบาดาล, ลพบุรี, 15130","lat":"15.318","lon":"101.251"},{"name":"เขาแหลม, อำเภอชัยบาดาล, ลพบุรี, 15130","lat":"15.126","lon":"100.964"},{"name":"ชัยนารายณ์, อำเภอชัยบาดาล, ลพบุรี, 15130","lat":"15.195","lon":"101.037"},{"name":"ซับตะเคียน, อำเภอชัยบาดาล, ลพบุรี, 15130","lat":"15.112","lon":"101.327"},{"name":"ท่าดินดำ, อำเภอชัยบาดาล, ลพบุรี, 15130","lat":"15.15","lon":"101.134"},{"name":"ท่ามะนาว, อำเภอชัยบาดาล, ลพบุรี, 15130","lat":"15.187","lon":"101.162"},{"name":"นิคมลำนารายณ์, อำเภอชัยบาดาล, ลพบุรี, 15130","lat":"15.264","lon":"101.15"},{"name":"บัวชุม, อำเภอชัยบาดาล, ลพบุรี, 15130","lat":"15.176","lon":"101.238"},{"name":"บ้านใหม่สามัคคี, อำเภอชัยบาดาล, ลพบุรี, 15130","lat":"15.258","lon":"101.022"},{"name":"ลำนารายณ์, อำเภอชัยบาดาล, ลพบุรี, 15130","lat":"15.214","lon":"101.146"},{"name":"ศิลาทิพย์, อำเภอชัยบาดาล, ลพบุรี, 15130","lat":"15.314","lon":"101.087"},{"name":"หนองยายโต๊ะ, อำเภอชัยบาดาล, ลพบุรี, 15130","lat":"15.22","lon":"101.264"},{"name":"ห้วยหิน, อำเภอชัยบาดาล, ลพบุรี, 15130","lat":"15.154","lon":"101.044"},{"name":"เขาน้อย, อำเภอลำสนธิ, ลพบุรี, 15130","lat":"15.112","lon":"101.387"},{"name":"โคกสลุง, อำเภอพัฒนานิคม, ลพบุรี, 15140","lat":"15.01","lon":"100.969"},{"name":"ชอนน้อย, อำเภอพัฒนานิคม, ลพบุรี, 15140","lat":"14.795","lon":"100.985"},{"name":"น้ำสุด, อำเภอพัฒนานิคม, ลพบุรี, 15140","lat":"14.952","lon":"101.146"},{"name":"พัฒนานิคม, อำเภอพัฒนานิคม, ลพบุรี, 15140","lat":"14.896","lon":"100.966"},{"name":"มะนาวหวาน, อำเภอพัฒนานิคม, ลพบุรี, 15140","lat":"14.934","lon":"101.093"},{"name":"หนองบัว, อำเภอพัฒนานิคม, ลพบุรี, 15140","lat":"14.851","lon":"101.054"},{"name":"โคกสลุด, อำเภอท่าวุ้ง, ลพบุรี, 15150","lat":"14.881","lon":"100.482"},{"name":"โพตลาดแก้ว, อำเภอท่าวุ้ง, ลพบุรี, 15150","lat":"14.795","lon":"100.558"},{"name":"ท่าวุ้ง, อำเภอท่าวุ้ง, ลพบุรี, 15150","lat":"14.82","lon":"100.496"},{"name":"บางคู้, อำเภอท่าวุ้ง, ลพบุรี, 15150","lat":"14.804","lon":"100.529"},{"name":"บางงา, อำเภอท่าวุ้ง, ลพบุรี, 15150","lat":"14.85","lon":"100.492"},{"name":"บางลี่, อำเภอท่าวุ้ง, ลพบุรี, 15150","lat":"14.849","lon":"100.526"},{"name":"บ้านเบิก, อำเภอท่าวุ้ง, ลพบุรี, 15150","lat":"null","lon":"null"},{"name":"มุจลินท์, อำเภอท่าวุ้ง, ลพบุรี, 15150","lat":"14.876","lon":"100.509"},{"name":"ลาดสาลี่, อำเภอท่าวุ้ง, ลพบุรี, 15150","lat":"14.723","lon":"100.487"},{"name":"หัวสำโรง, อำเภอท่าวุ้ง, ลพบุรี, 15150","lat":"14.776","lon":"100.494"},{"name":"เขาพระงาม, อำเภอเมืองลพบุรี, ลพบุรี, 15160","lat":"14.901","lon":"100.67"},{"name":"โคกกะเทียม, อำเภอเมืองลพบุรี, ลพบุรี, 15160","lat":"null","lon":"null"},{"name":"ชอนสมบูรณ์, อำเภอหนองม่วง, ลพบุรี, 15170","lat":"15.288","lon":"100.763"},{"name":"ชอนสารเดช, อำเภอหนองม่วง, ลพบุรี, 15170","lat":"15.195","lon":"100.709"},{"name":"ดงดินแดง, อำเภอหนองม่วง, ลพบุรี, 15170","lat":"15.385","lon":"100.679"},{"name":"บ่อทอง, อำเภอหนองม่วง, ลพบุรี, 15170","lat":"15.293","lon":"100.652"},{"name":"ยางโทน, อำเภอหนองม่วง, ลพบุรี, 15170","lat":"15.248","lon":"100.702"},{"name":"หนองม่วง, อำเภอหนองม่วง, ลพบุรี, 15170","lat":"15.23","lon":"100.664"},{"name":"เขาสมอคอน, อำเภอท่าวุ้ง, ลพบุรี, 15180","lat":"14.906","lon":"100.447"},{"name":"บางขาม, อำเภอบ้านหมี่, ลพบุรี, 15180","lat":"14.953","lon":"100.457"},{"name":"บ้านชี, อำเภอบ้านหมี่, ลพบุรี, 15180","lat":"14.947","lon":"100.5"},{"name":"นาโสม, อำเภอชัยบาดาล, ลพบุรี, 15190","lat":"15.245","lon":"101.282"},{"name":"เขารวก, อำเภอลำสนธิ, ลพบุรี, 15190","lat":"15.374","lon":"101.33"},{"name":"กุดตาเพชร, อำเภอลำสนธิ, ลพบุรี, 15190","lat":"15.523","lon":"101.346"},{"name":"ซับสมบูรณ์, อำเภอลำสนธิ, ลพบุรี, 15190","lat":"15.193","lon":"101.354"},{"name":"ลำสนธิ, อำเภอลำสนธิ, ลพบุรี, 15190","lat":"15.341","lon":"101.362"},{"name":"หนองรี, อำเภอลำสนธิ, ลพบุรี, 15190","lat":"15.282","lon":"101.319"},{"name":"โคกตูม, อำเภอเมืองลพบุรี, ลพบุรี, 15210","lat":"14.866","lon":"100.817"},{"name":"ช่องสาริกา, อำเภอพัฒนานิคม, ลพบุรี, 15220","lat":"14.802","lon":"100.909"},{"name":"ดีลัง, อำเภอพัฒนานิคม, ลพบุรี, 15220","lat":"14.94","lon":"100.852"},{"name":"ชัยบาดาล, อำเภอชัยบาดาล, ลพบุรี, 15230","lat":"15.095","lon":"101.058"},{"name":"ม่วงค่อม, อำเภอชัยบาดาล, ลพบุรี, 15230","lat":"15.078","lon":"101.024"},{"name":"มะกอกหวาน, อำเภอชัยบาดาล, ลพบุรี, 15230","lat":"15.059","lon":"101.077"},{"name":"แก่งผักกูด, อำเภอท่าหลวง, ลพบุรี, 15230","lat":"15.014","lon":"101.085"},{"name":"ซับจำปา, อำเภอท่าหลวง, ลพบุรี, 15230","lat":"15.026","lon":"101.228"},{"name":"ทะเลวังวัด, อำเภอท่าหลวง, ลพบุรี, 15230","lat":"15.023","lon":"101.184"},{"name":"ท่าหลวง, อำเภอท่าหลวง, ลพบุรี, 15230","lat":"15.071","lon":"101.117"},{"name":"หนองผักแว่น, อำเภอท่าหลวง, ลพบุรี, 15230","lat":"15.119","lon":"101.216"},{"name":"หัวลำ, อำเภอท่าหลวง, ลพบุรี, 15230","lat":"15.029","lon":"101.292"},{"name":"ทุ่งท่าช้าง, อำเภอสระโบสถ์, ลพบุรี, 15240","lat":"15.169","lon":"100.817"},{"name":"นิยมชัย, อำเภอสระโบสถ์, ลพบุรี, 15240","lat":"15.183","lon":"100.904"},{"name":"มหาโพธิ, อำเภอสระโบสถ์, ลพบุรี, 15240","lat":"15.289","lon":"100.861"},{"name":"สระโบสถ์, อำเภอสระโบสถ์, ลพบุรี, 15240","lat":"15.224","lon":"100.846"},{"name":"ห้วยใหญ่, อำเภอสระโบสถ์, ลพบุรี, 15240","lat":"15.169","lon":"100.793"},{"name":"โคกเจริญ, อำเภอโคกเจริญ, ลพบุรี, 15250","lat":"15.408","lon":"100.777"},{"name":"โคกแสมสาร, อำเภอโคกเจริญ, ลพบุรี, 15250","lat":"15.344","lon":"100.85"},{"name":"ยางราก, อำเภอโคกเจริญ, ลพบุรี, 15250","lat":"15.366","lon":"100.935"},{"name":"วังทอง, อำเภอโคกเจริญ, ลพบุรี, 15250","lat":"15.469","lon":"100.811"},{"name":"หนองมะค่า, อำเภอโคกเจริญ, ลพบุรี, 15250","lat":"15.515","lon":"100.839"},{"name":"โพกรวม, อำเภอเมืองสิงห์บุรี, สิงห์บุรี, 16000","lat":"14.944","lon":"100.394"},{"name":"จักรสีห์, อำเภอเมืองสิงห์บุรี, สิงห์บุรี, 16000","lat":"14.836","lon":"100.398"},{"name":"ต้นโพธิ์, อำเภอเมืองสิงห์บุรี, สิงห์บุรี, 16000","lat":"14.869","lon":"100.398"},{"name":"บางกระบือ, อำเภอเมืองสิงห์บุรี, สิงห์บุรี, 16000","lat":"14.907","lon":"100.363"},{"name":"บางพุทรา, อำเภอเมืองสิงห์บุรี, สิงห์บุรี, 16000","lat":"14.89","lon":"100.404"},{"name":"บางมัญ, อำเภอเมืองสิงห์บุรี, สิงห์บุรี, 16000","lat":"14.916","lon":"100.4"},{"name":"ม่วงหมู่, อำเภอเมืองสิงห์บุรี, สิงห์บุรี, 16000","lat":"14.869","lon":"100.432"},{"name":"หัวไผ่, อำเภอเมืองสิงห์บุรี, สิงห์บุรี, 16000","lat":"14.965","lon":"100.429"},{"name":"โพธิ์ชัย, อำเภออินทร์บุรี, สิงห์บุรี, 16110","lat":"15.027","lon":"100.439"},{"name":"งิ้วราย, อำเภออินทร์บุรี, สิงห์บุรี, 16110","lat":"14.988","lon":"100.389"},{"name":"ชีน้ำร้าย, อำเภออินทร์บุรี, สิงห์บุรี, 16110","lat":"15.081","lon":"100.331"},{"name":"ทองเอน, อำเภออินทร์บุรี, สิงห์บุรี, 16110","lat":"15.046","lon":"100.385"},{"name":"ทับยา, อำเภออินทร์บุรี, สิงห์บุรี, 16110","lat":"14.96","lon":"100.334"},{"name":"ท่างาม, อำเภออินทร์บุรี, สิงห์บุรี, 16110","lat":"15.041","lon":"100.343"},{"name":"น้ำตาล, อำเภออินทร์บุรี, สิงห์บุรี, 16110","lat":"14.976","lon":"100.361"},{"name":"ประศุก, อำเภออินทร์บุรี, สิงห์บุรี, 16110","lat":"15.042","lon":"100.291"},{"name":"ห้วยชัน, อำเภออินทร์บุรี, สิงห์บุรี, 16110","lat":"15.019","lon":"100.269"},{"name":"อินทร์บุรี, อำเภออินทร์บุรี, สิงห์บุรี, 16110","lat":"15.009","lon":"100.329"},{"name":"โรงช้าง, อำเภอพรหมบุรี, สิงห์บุรี, 16120","lat":"14.801","lon":"100.425"},{"name":"บางน้ำเชี่ยว, อำเภอพรหมบุรี, สิงห์บุรี, 16120","lat":"14.783","lon":"100.458"},{"name":"บ้านแป้ง, อำเภอพรหมบุรี, สิงห์บุรี, 16120","lat":"14.811","lon":"100.458"},{"name":"บ้านหม้อ, อำเภอพรหมบุรี, สิงห์บุรี, 16120","lat":"14.746","lon":"100.461"},{"name":"พระงาม, อำเภอพรหมบุรี, สิงห์บุรี, 16120","lat":"14.748","lon":"100.422"},{"name":"หัวป่า, อำเภอพรหมบุรี, สิงห์บุรี, 16120","lat":"14.831","lon":"100.425"},{"name":"เชิงกลัด, อำเภอบางระจัน, สิงห์บุรี, 16130","lat":"14.91","lon":"100.269"},{"name":"แม่ลา, อำเภอบางระจัน, สิงห์บุรี, 16130","lat":"14.941","lon":"100.319"},{"name":"โพชนไก่, อำเภอบางระจัน, สิงห์บุรี, 16130","lat":"14.929","lon":"100.292"},{"name":"ไม้ดัด, อำเภอบางระจัน, สิงห์บุรี, 16130","lat":"14.858","lon":"100.345"},{"name":"บ้านจ่า, อำเภอบางระจัน, สิงห์บุรี, 16130","lat":"14.852","lon":"100.284"},{"name":"พักทัน, อำเภอบางระจัน, สิงห์บุรี, 16130","lat":"14.924","lon":"100.22"},{"name":"สระแจง, อำเภอบางระจัน, สิงห์บุรี, 16130","lat":"14.873","lon":"100.235"},{"name":"สิงห์, อำเภอบางระจัน, สิงห์บุรี, 16130","lat":"14.89","lon":"100.338"},{"name":"โพประจักษ์, อำเภอท่าช้าง, สิงห์บุรี, 16140","lat":"14.774","lon":"100.36"},{"name":"ถอนสมอ, อำเภอท่าช้าง, สิงห์บุรี, 16140","lat":"14.765","lon":"100.384"},{"name":"พิกุลทอง, อำเภอท่าช้าง, สิงห์บุรี, 16140","lat":"14.772","lon":"100.41"},{"name":"วิหารขาว, อำเภอท่าช้าง, สิงห์บุรี, 16140","lat":"14.801","lon":"100.409"},{"name":"โพทะเล, อำเภอค่ายบางระจัน, สิงห์บุรี, 16150","lat":"14.829","lon":"100.257"},{"name":"โพสังโฆ, อำเภอค่ายบางระจัน, สิงห์บุรี, 16150","lat":"14.833","lon":"100.349"},{"name":"คอทราย, อำเภอค่ายบางระจัน, สิงห์บุรี, 16150","lat":"14.817","lon":"100.281"},{"name":"ท่าข้าม, อำเภอค่ายบางระจัน, สิงห์บุรี, 16150","lat":"14.827","lon":"100.368"},{"name":"บางระจัน, อำเภอค่ายบางระจัน, สิงห์บุรี, 16150","lat":"14.799","lon":"100.296"},{"name":"หนองกระทุ่ม, อำเภอค่ายบางระจัน, สิงห์บุรี, 16150","lat":"14.82","lon":"100.225"},{"name":"พรหมบุรี, อำเภอพรหมบุรี, สิงห์บุรี, 16160","lat":"14.837","lon":"100.451"},{"name":"เขาท่าพระ, อำเภอเมืองชัยนาท, ชัยนาท, 17000","lat":"15.218","lon":"100.134"},{"name":"เสือโฮก, อำเภอเมืองชัยนาท, ชัยนาท, 17000","lat":"15.238","lon":"100.224"},{"name":"ในเมือง, อำเภอเมืองชัยนาท, ชัยนาท, 17000","lat":"15.181","lon":"100.127"},{"name":"ชัยนาท, อำเภอเมืองชัยนาท, ชัยนาท, 17000","lat":"15.129","lon":"100.151"},{"name":"ท่าชัย, อำเภอเมืองชัยนาท, ชัยนาท, 17000","lat":"15.163","lon":"100.113"},{"name":"ธรรมามูล, อำเภอเมืองชัยนาท, ชัยนาท, 17000","lat":"15.264","lon":"100.133"},{"name":"นางลือ, อำเภอเมืองชัยนาท, ชัยนาท, 17000","lat":"15.122","lon":"100.082"},{"name":"บ้านกล้วย, อำเภอเมืองชัยนาท, ชัยนาท, 17000","lat":"15.182","lon":"100.153"},{"name":"หาดท่าเสา, อำเภอเมืองชัยนาท, ชัยนาท, 17000","lat":"15.2","lon":"100.079"},{"name":"คุ้งสำเภา, อำเภอมโนรมย์, ชัยนาท, 17110","lat":"15.291","lon":"100.091"},{"name":"ท่าฉนวน, อำเภอมโนรมย์, ชัยนาท, 17110","lat":"15.379","lon":"100.138"},{"name":"วัดโคก, อำเภอมโนรมย์, ชัยนาท, 17110","lat":"15.326","lon":"100.107"},{"name":"ศิลาดาน, อำเภอมโนรมย์, ชัยนาท, 17110","lat":"15.354","lon":"100.122"},{"name":"บ่อแร่, อำเภอวัดสิงห์, ชัยนาท, 17120","lat":"15.283","lon":"99.958"},{"name":"มะขามเฒ่า, อำเภอวัดสิงห์, ชัยนาท, 17120","lat":"15.227","lon":"100.04"},{"name":"วังหมัน, อำเภอวัดสิงห์, ชัยนาท, 17120","lat":"15.171","lon":"99.916"},{"name":"วัดสิงห์, อำเภอวัดสิงห์, ชัยนาท, 17120","lat":"15.263","lon":"100.041"},{"name":"หนองขุ่น, อำเภอวัดสิงห์, ชัยนาท, 17120","lat":"15.235","lon":"99.97"},{"name":"หนองน้อย, อำเภอวัดสิงห์, ชัยนาท, 17120","lat":"15.177","lon":"100.015"},{"name":"หนองบัว, อำเภอวัดสิงห์, ชัยนาท, 17120","lat":"15.283","lon":"100.013"},{"name":"กุดจอก, อำเภอหนองมะโมง, ชัยนาท, 17120","lat":"15.241","lon":"99.894"},{"name":"วังตะเคียน, อำเภอหนองมะโมง, ชัยนาท, 17120","lat":"15.278","lon":"99.802"},{"name":"สะพานหิน, อำเภอหนองมะโมง, ชัยนาท, 17120","lat":"15.197","lon":"99.827"},{"name":"หนองมะโมง, อำเภอหนองมะโมง, ชัยนาท, 17120","lat":"15.216","lon":"99.772"},{"name":"เนินขาม, อำเภอเนินขาม, ชัยนาท, 17130","lat":"14.957","lon":"99.901"},{"name":"กะบกเตี้ย, อำเภอเนินขาม, ชัยนาท, 17130","lat":"15.036","lon":"99.816"},{"name":"สุขเดือนห้า, อำเภอเนินขาม, ชัยนาท, 17130","lat":"14.968","lon":"99.828"},{"name":"เด่นใหญ่, อำเภอหันคา, ชัยนาท, 17130","lat":"15.017","lon":"99.93"},{"name":"ไพรนกยูง, อำเภอหันคา, ชัยนาท, 17130","lat":"15.081","lon":"99.856"},{"name":"บ้านเชี่ยน, อำเภอหันคา, ชัยนาท, 17130","lat":"14.942","lon":"99.997"},{"name":"วังไก่เถื่อน, อำเภอหันคา, ชัยนาท, 17130","lat":"15.004","lon":"100.056"},{"name":"หันคา, อำเภอหันคา, ชัยนาท, 17130","lat":"15.016","lon":"99.998"},{"name":"เที่ยงแท้, อำเภอสรรคบุรี, ชัยนาท, 17140","lat":"15.089","lon":"100.161"},{"name":"แพรกศรีราชา, อำเภอสรรคบุรี, ชัยนาท, 17140","lat":"15.062","lon":"100.107"},{"name":"โพงาม, อำเภอสรรคบุรี, ชัยนาท, 17140","lat":"14.995","lon":"100.249"},{"name":"ดงคอน, อำเภอสรรคบุรี, ชัยนาท, 17140","lat":"14.976","lon":"100.135"},{"name":"ดอนกำ, อำเภอสรรคบุรี, ชัยนาท, 17140","lat":"14.966","lon":"100.236"},{"name":"บางขุด, อำเภอสรรคบุรี, ชัยนาท, 17140","lat":"14.991","lon":"100.194"},{"name":"ห้วยกรด, อำเภอสรรคบุรี, ชัยนาท, 17140","lat":"15.096","lon":"100.203"},{"name":"ห้วยกรดพัฒนา, อำเภอสรรคบุรี, ชัยนาท, 17140","lat":"15.074","lon":"100.228"},{"name":"เขาแก้ว, อำเภอสรรพยา, ชัยนาท, 17150","lat":"15.142","lon":"100.316"},{"name":"โพนางดำตก, อำเภอสรรพยา, ชัยนาท, 17150","lat":"15.084","lon":"100.272"},{"name":"โพนางดำออก, อำเภอสรรพยา, ชัยนาท, 17150","lat":"15.12","lon":"100.283"},{"name":"ตลุก, อำเภอสรรพยา, ชัยนาท, 17150","lat":"15.195","lon":"100.198"},{"name":"บางหลวง, อำเภอสรรพยา, ชัยนาท, 17150","lat":"15.143","lon":"100.197"},{"name":"สรรพยา, อำเภอสรรพยา, ชัยนาท, 17150","lat":"15.128","lon":"100.233"},{"name":"หาดอาษา, อำเภอสรรพยา, ชัยนาท, 17150","lat":"15.165","lon":"100.262"},{"name":"สามง่ามท่าโบสถ์, อำเภอหันคา, ชัยนาท, 17160","lat":"15.065","lon":"100.026"},{"name":"หนองแซง, อำเภอหันคา, ชัยนาท, 17160","lat":"15.107","lon":"99.973"},{"name":"ห้วยงู, อำเภอหันคา, ชัยนาท, 17160","lat":"15.072","lon":"100.067"},{"name":"ไร่พัฒนา, อำเภอมโนรมย์, ชัยนาท, 17170","lat":"15.333","lon":"100.225"},{"name":"หางน้ำสาคร, อำเภอมโนรมย์, ชัยนาท, 17170","lat":"15.292","lon":"100.146"},{"name":"อู่ตะเภา, อำเภอมโนรมย์, ชัยนาท, 17170","lat":"15.274","lon":"100.219"},{"name":"เขาดินพัฒนา, อำเภอเฉลิมพระเกียรติ, สระบุรี, 18000","lat":"14.612","lon":"100.906"},{"name":"บ้านแก้ง, อำเภอเฉลิมพระเกียรติ, สระบุรี, 18000","lat":"14.582","lon":"100.936"},{"name":"ผึ้งรวง, อำเภอเฉลิมพระเกียรติ, สระบุรี, 18000","lat":"14.607","lon":"100.931"},{"name":"ห้วยบง, อำเภอเฉลิมพระเกียรติ, สระบุรี, 18000","lat":"14.626","lon":"100.877"},{"name":"โคกสว่าง, อำเภอเมืองสระบุรี, สระบุรี, 18000","lat":"14.51","lon":"100.886"},{"name":"กุดนกเปล้า, อำเภอเมืองสระบุรี, สระบุรี, 18000","lat":"14.502","lon":"100.976"},{"name":"ดาวเรือง, อำเภอเมืองสระบุรี, สระบุรี, 18000","lat":"14.563","lon":"100.901"},{"name":"ตลิ่งชัน, อำเภอเมืองสระบุรี, สระบุรี, 18000","lat":"14.544","lon":"100.956"},{"name":"ตะกุด, อำเภอเมืองสระบุรี, สระบุรี, 18000","lat":"14.553","lon":"100.933"},{"name":"นาโฉง, อำเภอเมืองสระบุรี, สระบุรี, 18000","lat":"14.529","lon":"100.886"},{"name":"ปากเพรียว, อำเภอเมืองสระบุรี, สระบุรี, 18000","lat":"14.527","lon":"100.915"},{"name":"ปากข้าวสาร, อำเภอเมืองสระบุรี, สระบุรี, 18000","lat":"14.49","lon":"100.913"},{"name":"หนองโน, อำเภอเมืองสระบุรี, สระบุรี, 18000","lat":"14.489","lon":"100.861"},{"name":"หนองปลาไหล, อำเภอเมืองสระบุรี, สระบุรี, 18000","lat":"14.456","lon":"100.962"},{"name":"หนองยาว, อำเภอเมืองสระบุรี, สระบุรี, 18000","lat":"14.472","lon":"100.89"},{"name":"เตาปูน, อำเภอแก่งคอย, สระบุรี, 18110","lat":"14.603","lon":"100.956"},{"name":"แก่งคอย, อำเภอแก่งคอย, สระบุรี, 18110","lat":"14.586","lon":"101.002"},{"name":"ชะอม, อำเภอแก่งคอย, สระบุรี, 18110","lat":"14.418","lon":"101.134"},{"name":"ชำผักแพว, อำเภอแก่งคอย, สระบุรี, 18110","lat":"14.529","lon":"101.09"},{"name":"ตาลเดี่ยว, อำเภอแก่งคอย, สระบุรี, 18110","lat":"14.552","lon":"101.015"},{"name":"ท่าคล้อ, อำเภอแก่งคอย, สระบุรี, 18110","lat":"14.712","lon":"100.993"},{"name":"ท่าตูม, อำเภอแก่งคอย, สระบุรี, 18110","lat":"14.662","lon":"100.993"},{"name":"ท่ามะปราง, อำเภอแก่งคอย, สระบุรี, 18110","lat":"14.483","lon":"101.103"},{"name":"บ้านธาตุ, อำเภอแก่งคอย, สระบุรี, 18110","lat":"14.626","lon":"100.997"},{"name":"บ้านป่า, อำเภอแก่งคอย, สระบุรี, 18110","lat":"14.622","lon":"101.029"},{"name":"สองคอน, อำเภอแก่งคอย, สระบุรี, 18110","lat":"14.636","lon":"100.968"},{"name":"ห้วยแห้ง, อำเภอแก่งคอย, สระบุรี, 18110","lat":"14.477","lon":"101.004"},{"name":"หินซ้อน, อำเภอแก่งคอย, สระบุรี, 18110","lat":"14.753","lon":"101.033"},{"name":"เขาวง, อำเภอพระพุทธบาท, สระบุรี, 18120","lat":"14.679","lon":"100.83"},{"name":"ขุนโขลน, อำเภอพระพุทธบาท, สระบุรี, 18120","lat":"14.713","lon":"100.831"},{"name":"ธารเกษม, อำเภอพระพุทธบาท, สระบุรี, 18120","lat":"14.763","lon":"100.812"},{"name":"นายาว, อำเภอพระพุทธบาท, สระบุรี, 18120","lat":"14.768","lon":"100.763"},{"name":"พระพุทธบาท, อำเภอพระพุทธบาท, สระบุรี, 18120","lat":"14.732","lon":"100.782"},{"name":"พุกร่าง, อำเภอพระพุทธบาท, สระบุรี, 18120","lat":"14.682","lon":"100.784"},{"name":"พุคำจาน, อำเภอพระพุทธบาท, สระบุรี, 18120","lat":"14.744","lon":"100.847"},{"name":"หนองแก, อำเภอพระพุทธบาท, สระบุรี, 18120","lat":"null","lon":"null"},{"name":"ห้วยป่าหวาย, อำเภอพระพุทธบาท, สระบุรี, 18120","lat":"14.638","lon":"100.83"},{"name":"โคกใหญ่, อำเภอบ้านหมอ, สระบุรี, 18130","lat":"14.606","lon":"100.677"},{"name":"ไผ่ขวาง, อำเภอบ้านหมอ, สระบุรี, 18130","lat":"14.579","lon":"100.648"},{"name":"ตลาดน้อย, อำเภอบ้านหมอ, สระบุรี, 18130","lat":"14.643","lon":"100.716"},{"name":"บางโขมด, อำเภอบ้านหมอ, สระบุรี, 18130","lat":"14.591","lon":"100.742"},{"name":"บ้านหมอ, อำเภอบ้านหมอ, สระบุรี, 18130","lat":"14.616","lon":"100.724"},{"name":"สร่างโศก, อำเภอบ้านหมอ, สระบุรี, 18130","lat":"14.622","lon":"100.754"},{"name":"หนองบัว, อำเภอบ้านหมอ, สระบุรี, 18130","lat":"14.618","lon":"100.774"},{"name":"หรเทพ, อำเภอบ้านหมอ, สระบุรี, 18130","lat":"14.628","lon":"100.67"},{"name":"ไผ่ต่ำ, อำเภอหนองแค, สระบุรี, 18140","lat":"14.326","lon":"100.834"},{"name":"กุ่มหัก, อำเภอหนองแค, สระบุรี, 18140","lat":"14.312","lon":"100.863"},{"name":"หนองแขม, อำเภอหนองแค, สระบุรี, 18140","lat":"14.339","lon":"100.797"},{"name":"หนองแค, อำเภอหนองแค, สระบุรี, 18140","lat":"14.337","lon":"100.869"},{"name":"หนองโรง, อำเภอหนองแค, สระบุรี, 18140","lat":"14.279","lon":"100.865"},{"name":"หนองไข่น้ำ, อำเภอหนองแค, สระบุรี, 18140","lat":"14.36","lon":"100.878"},{"name":"หนองจรเข้, อำเภอหนองแค, สระบุรี, 18140","lat":"14.334","lon":"100.907"},{"name":"หนองปลาหมอ, อำเภอหนองแค, สระบุรี, 18140","lat":"14.369","lon":"100.845"},{"name":"หนองปลิง, อำเภอหนองแค, สระบุรี, 18140","lat":"14.37","lon":"100.829"},{"name":"เจริญธรรม, อำเภอวิหารแดง, สระบุรี, 18150","lat":"14.387","lon":"101.006"},{"name":"คลองเรือ, อำเภอวิหารแดง, สระบุรี, 18150","lat":"14.366","lon":"101.032"},{"name":"บ้านลำ, อำเภอวิหารแดง, สระบุรี, 18150","lat":"14.391","lon":"100.979"},{"name":"วิหารแดง, อำเภอวิหารแดง, สระบุรี, 18150","lat":"14.313","lon":"100.99"},{"name":"หนองสรวง, อำเภอวิหารแดง, สระบุรี, 18150","lat":"14.34","lon":"100.983"},{"name":"หนองหมู, อำเภอวิหารแดง, สระบุรี, 18150","lat":"14.288","lon":"100.932"},{"name":"เมืองเก่า, อำเภอเสาไห้, สระบุรี, 18160","lat":"14.54","lon":"100.825"},{"name":"เริงราง, อำเภอเสาไห้, สระบุรี, 18160","lat":"14.558","lon":"100.786"},{"name":"เสาไห้, อำเภอเสาไห้, สระบุรี, 18160","lat":"14.538","lon":"100.85"},{"name":"งิ้วงาม, อำเภอเสาไห้, สระบุรี, 18160","lat":"14.59","lon":"100.851"},{"name":"ต้นตาล, อำเภอเสาไห้, สระบุรี, 18160","lat":"14.574","lon":"100.885"},{"name":"ท่าช้าง, อำเภอเสาไห้, สระบุรี, 18160","lat":"14.586","lon":"100.863"},{"name":"บ้านยาง, อำเภอเสาไห้, สระบุรี, 18160","lat":"14.582","lon":"100.816"},{"name":"พระยาทด, อำเภอเสาไห้, สระบุรี, 18160","lat":"14.572","lon":"100.871"},{"name":"ม่วงงาม, อำเภอเสาไห้, สระบุรี, 18160","lat":"14.544","lon":"100.807"},{"name":"ศาลารีไทย, อำเภอเสาไห้, สระบุรี, 18160","lat":"14.565","lon":"100.848"},{"name":"สวนดอกไม้, อำเภอเสาไห้, สระบุรี, 18160","lat":"14.54","lon":"100.868"},{"name":"หัวปลวก, อำเภอเสาไห้, สระบุรี, 18160","lat":"14.615","lon":"100.844"},{"name":"เขาดิน, อำเภอหนองแซง, สระบุรี, 18170","lat":"null","lon":"null"},{"name":"โคกสะอาด, อำเภอหนองแซง, สระบุรี, 18170","lat":"14.456","lon":"100.802"},{"name":"ไก่เส่า, อำเภอหนองแซง, สระบุรี, 18170","lat":"14.516","lon":"100.793"},{"name":"ม่วงหวาน, อำเภอหนองแซง, สระบุรี, 18170","lat":"14.476","lon":"100.836"},{"name":"หนองแซง, อำเภอหนองแซง, สระบุรี, 18170","lat":"14.51","lon":"100.759"},{"name":"หนองกบ, อำเภอหนองแซง, สระบุรี, 18170","lat":"14.456","lon":"100.776"},{"name":"หนองควายโซ, อำเภอหนองแซง, สระบุรี, 18170","lat":"14.487","lon":"100.795"},{"name":"หนองสีดา, อำเภอหนองแซง, สระบุรี, 18170","lat":"14.515","lon":"100.841"},{"name":"หนองหัวโพ, อำเภอหนองแซง, สระบุรี, 18170","lat":"14.483","lon":"100.817"},{"name":"มวกเหล็ก, อำเภอมวกเหล็ก, สระบุรี, 18180","lat":"14.705","lon":"101.151"},{"name":"มิตรภาพ, อำเภอมวกเหล็ก, สระบุรี, 18180","lat":"14.474","lon":"101.213"},{"name":"หนองย่างเสือ, อำเภอมวกเหล็ก, สระบุรี, 18180","lat":"14.789","lon":"101.27"},{"name":"ดอนทอง, อำเภอหนองโดน, สระบุรี, 18190","lat":"14.664","lon":"100.654"},{"name":"บ้านโปร่ง, อำเภอหนองโดน, สระบุรี, 18190","lat":"14.716","lon":"100.734"},{"name":"บ้านกลับ, อำเภอหนองโดน, สระบุรี, 18190","lat":"14.73","lon":"100.684"},{"name":"หนองโดน, อำเภอหนองโดน, สระบุรี, 18190","lat":"14.688","lon":"100.693"},{"name":"ไผ่หลิ่ว, อำเภอดอนพุด, สระบุรี, 18210","lat":"14.625","lon":"100.632"},{"name":"ดงตะงาว, อำเภอดอนพุด, สระบุรี, 18210","lat":"14.624","lon":"100.599"},{"name":"ดอนพุด, อำเภอดอนพุด, สระบุรี, 18210","lat":"14.596","lon":"100.621"},{"name":"บ้านหลวง, อำเภอดอนพุด, สระบุรี, 18210","lat":"14.571","lon":"100.62"},{"name":"ห้วยขุนราม, อำเภอพัฒนานิคม, ลพบุรี, 18220","lat":"14.951","lon":"101.205"},{"name":"ซับสนุ่น, อำเภอมวกเหล็ก, สระบุรี, 18220","lat":"14.932","lon":"101.309"},{"name":"แสลงพัน, อำเภอวังม่วง, สระบุรี, 18220","lat":"14.745","lon":"101.116"},{"name":"คำพราน, อำเภอวังม่วง, สระบุรี, 18220","lat":"14.818","lon":"101.132"},{"name":"วังม่วง, อำเภอวังม่วง, สระบุรี, 18220","lat":"14.861","lon":"101.151"},{"name":"โคกแย้, อำเภอหนองแค, สระบุรี, 18230","lat":"14.387","lon":"100.928"},{"name":"บัวลอย, อำเภอหนองแค, สระบุรี, 18230","lat":"14.404","lon":"100.851"},{"name":"หนองจิก, อำเภอหนองแค, สระบุรี, 18230","lat":"14.441","lon":"100.866"},{"name":"หนองนาก, อำเภอหนองแค, สระบุรี, 18230","lat":"14.444","lon":"100.891"},{"name":"ห้วยขมิ้น, อำเภอหนองแค, สระบุรี, 18230","lat":"14.381","lon":"100.871"},{"name":"ห้วยทราย, อำเภอหนองแค, สระบุรี, 18230","lat":"14.42","lon":"100.933"},{"name":"พุแค, อำเภอเฉลิมพระเกียรติ, สระบุรี, 18240","lat":"14.656","lon":"100.905"},{"name":"หน้าพระลาน, อำเภอเฉลิมพระเกียรติ, สระบุรี, 18240","lat":"14.713","lon":"100.904"},{"name":"โคกตูม, อำเภอหนองแค, สระบุรี, 18250","lat":"14.421","lon":"100.784"},{"name":"โพนทอง, อำเภอหนองแค, สระบุรี, 18250","lat":"14.425","lon":"100.813"},{"name":"คชสิทธิ์, อำเภอหนองแค, สระบุรี, 18250","lat":"14.391","lon":"100.807"},{"name":"ทับกวาง, อำเภอแก่งคอย, สระบุรี, 18260","lat":"14.605","lon":"101.095"},{"name":"บ้านครัว, อำเภอบ้านหมอ, สระบุรี, 18270","lat":"14.584","lon":"100.767"},{"name":"เสม็ด, อำเภอเมืองชลบุรี, ชลบุรี, 20000","lat":"13.326","lon":"100.951"},{"name":"คลองตำหรุ, อำเภอเมืองชลบุรี, ชลบุรี, 20000","lat":"13.441","lon":"100.982"},{"name":"ดอนหัวฬ่อ, อำเภอเมืองชลบุรี, ชลบุรี, 20000","lat":"13.421","lon":"101.044"},{"name":"นาป่า, อำเภอเมืองชลบุรี, ชลบุรี, 20000","lat":"13.385","lon":"101.03"},{"name":"บางทราย, อำเภอเมืองชลบุรี, ชลบุรี, 20000","lat":"13.393","lon":"100.996"},{"name":"บางปลาสร้อย, อำเภอเมืองชลบุรี, ชลบุรี, 20000","lat":"13.364","lon":"100.987"},{"name":"บ้านโขด, อำเภอเมืองชลบุรี, ชลบุรี, 20000","lat":"13.376","lon":"100.99"},{"name":"บ้านสวน, อำเภอเมืองชลบุรี, ชลบุรี, 20000","lat":"13.347","lon":"100.977"},{"name":"มะขามหย่ง, อำเภอเมืองชลบุรี, ชลบุรี, 20000","lat":"13.372","lon":"100.985"},{"name":"สำนักบก, อำเภอเมืองชลบุรี, ชลบุรี, 20000","lat":"13.368","lon":"101.061"},{"name":"หนองไม้แดง, อำเภอเมืองชลบุรี, ชลบุรี, 20000","lat":"13.406","lon":"101.003"},{"name":"หนองข้างคอก, อำเภอเมืองชลบุรี, ชลบุรี, 20000","lat":"13.305","lon":"101.006"},{"name":"หนองรี, อำเภอเมืองชลบุรี, ชลบุรี, 20000","lat":"13.307","lon":"101.057"},{"name":"ห้วยกะปิ, อำเภอเมืองชลบุรี, ชลบุรี, 20000","lat":"13.304","lon":"100.968"},{"name":"อ่างศิลา, อำเภอเมืองชลบุรี, ชลบุรี, 20000","lat":"13.325","lon":"100.929"},{"name":"เขาคันทรง, อำเภอศรีราชา, ชลบุรี, 20110","lat":"13.129","lon":"101.123"},{"name":"บางพระ, อำเภอศรีราชา, ชลบุรี, 20110","lat":"13.223","lon":"101.007"},{"name":"ศรีราชา, อำเภอศรีราชา, ชลบุรี, 20110","lat":"13.174","lon":"100.92"},{"name":"สุรศักดิ์, อำเภอศรีราชา, ชลบุรี, 20110","lat":"13.16","lon":"100.983"},{"name":"ท่าเทววงษ์, อำเภอเกาะสีชัง, ชลบุรี, 20120","lat":"13.151","lon":"100.809"},{"name":"เหมือง, อำเภอเมืองชลบุรี, ชลบุรี, 20130","lat":"13.263","lon":"100.959"},{"name":"แสนสุข, อำเภอเมืองชลบุรี, ชลบุรี, 20130","lat":"13.274","lon":"100.928"},{"name":"บ้านปึก, อำเภอเมืองชลบุรี, ชลบุรี, 20130","lat":"13.302","lon":"100.928"},{"name":"โคกเพลาะ, อำเภอพนัสนิคม, ชลบุรี, 20140","lat":"13.52","lon":"101.121"},{"name":"ไร่หลักทอง, อำเภอพนัสนิคม, ชลบุรี, 20140","lat":"13.484","lon":"101.184"},{"name":"กุฎโง้ง, อำเภอพนัสนิคม, ชลบุรี, 20140","lat":"13.444","lon":"101.165"},{"name":"ท่าข้าม, อำเภอพนัสนิคม, ชลบุรี, 20140","lat":"13.559","lon":"101.177"},{"name":"ทุ่งขวาง, อำเภอพนัสนิคม, ชลบุรี, 20140","lat":"13.4","lon":"101.188"},{"name":"นาเริก, อำเภอพนัสนิคม, ชลบุรี, 20140","lat":"13.405","lon":"101.248"},{"name":"นามะตูม, อำเภอพนัสนิคม, ชลบุรี, 20140","lat":"null","lon":"null"},{"name":"นาวังหิน, อำเภอพนัสนิคม, ชลบุรี, 20140","lat":"13.442","lon":"101.251"},{"name":"บ้านเซิด, อำเภอพนัสนิคม, ชลบุรี, 20140","lat":"null","lon":"null"},{"name":"บ้านช้าง, อำเภอพนัสนิคม, ชลบุรี, 20140","lat":"13.435","lon":"101.213"},{"name":"พนัสนิคม, อำเภอพนัสนิคม, ชลบุรี, 20140","lat":"13.45","lon":"101.18"},{"name":"วัดโบสถ์, อำเภอพนัสนิคม, ชลบุรี, 20140","lat":"13.498","lon":"101.139"},{"name":"วัดหลวง, อำเภอพนัสนิคม, ชลบุรี, 20140","lat":"13.518","lon":"101.161"},{"name":"สระสี่เหลี่ยม, อำเภอพนัสนิคม, ชลบุรี, 20140","lat":"13.554","lon":"101.239"},{"name":"หนองเหียง, อำเภอพนัสนิคม, ชลบุรี, 20140","lat":"13.464","lon":"101.33"},{"name":"หนองขยาด, อำเภอพนัสนิคม, ชลบุรี, 20140","lat":"13.402","lon":"101.151"},{"name":"หนองปรือ, อำเภอพนัสนิคม, ชลบุรี, 20140","lat":"13.511","lon":"101.254"},{"name":"หน้าพระธาตุ, อำเภอพนัสนิคม, ชลบุรี, 20140","lat":"13.468","lon":"101.147"},{"name":"หมอนนาง, อำเภอพนัสนิคม, ชลบุรี, 20140","lat":"13.346","lon":"101.257"},{"name":"หัวถนน, อำเภอพนัสนิคม, ชลบุรี, 20140","lat":"13.531","lon":"101.265"},{"name":"เขาไม้แก้ว, อำเภอบางละมุง, ชลบุรี, 20150","lat":"12.951","lon":"101.057"},{"name":"โป่ง, อำเภอบางละมุง, ชลบุรี, 20150","lat":"12.933","lon":"100.987"},{"name":"ตะเคียนเตี้ย, อำเภอบางละมุง, ชลบุรี, 20150","lat":"13.002","lon":"101.015"},{"name":"นาเกลือ, อำเภอบางละมุง, ชลบุรี, 20150","lat":"12.928","lon":"100.805"},{"name":"บางละมุง, อำเภอบางละมุง, ชลบุรี, 20150","lat":"13.052","lon":"100.922"},{"name":"หนองปรือ, อำเภอบางละมุง, ชลบุรี, 20150","lat":"12.92","lon":"100.935"},{"name":"หนองปลาไหล, อำเภอบางละมุง, ชลบุรี, 20150","lat":"12.982","lon":"100.945"},{"name":"ห้วยใหญ่, อำเภอบางละมุง, ชลบุรี, 20150","lat":"12.835","lon":"100.985"},{"name":"เกาะลอย, อำเภอพานทอง, ชลบุรี, 20160","lat":"13.519","lon":"101.074"},{"name":"โคกขี้หนอน, อำเภอพานทอง, ชลบุรี, 20160","lat":"13.552","lon":"101.114"},{"name":"บางนาง, อำเภอพานทอง, ชลบุรี, 20160","lat":"13.487","lon":"101.067"},{"name":"บางหัก, อำเภอพานทอง, ชลบุรี, 20160","lat":"13.544","lon":"101.075"},{"name":"บ้านเก่า, อำเภอพานทอง, ชลบุรี, 20160","lat":"13.454","lon":"101.059"},{"name":"พานทอง, อำเภอพานทอง, ชลบุรี, 20160","lat":"13.461","lon":"101.084"},{"name":"มาบโป่ง, อำเภอพานทอง, ชลบุรี, 20160","lat":"13.431","lon":"101.121"},{"name":"หนองกะขะ, อำเภอพานทอง, ชลบุรี, 20160","lat":"13.431","lon":"101.095"},{"name":"หนองตำลึง, อำเภอพานทอง, ชลบุรี, 20160","lat":"13.408","lon":"101.078"},{"name":"หนองหงษ์, อำเภอพานทอง, ชลบุรี, 20160","lat":"13.389","lon":"101.113"},{"name":"หน้าประดู่, อำเภอพานทอง, ชลบุรี, 20160","lat":"13.497","lon":"101.099"},{"name":"บ้านบึง, อำเภอบ้านบึง, ชลบุรี, 20170","lat":"13.297","lon":"101.107"},{"name":"มาบไผ่, อำเภอบ้านบึง, ชลบุรี, 20170","lat":"13.359","lon":"101.093"},{"name":"หนองชาก, อำเภอบ้านบึง, ชลบุรี, 20170","lat":"13.298","lon":"101.172"},{"name":"หนองซ้ำซาก, อำเภอบ้านบึง, ชลบุรี, 20170","lat":"13.33","lon":"101.072"},{"name":"หนองบอนแดง, อำเภอบ้านบึง, ชลบุรี, 20170","lat":"13.353","lon":"101.159"},{"name":"แสมสาร, อำเภอสัตหีบ, ชลบุรี, 20180","lat":"12.616","lon":"100.918"},{"name":"พลูตาหลวง, อำเภอสัตหีบ, ชลบุรี, 20180","lat":"12.701","lon":"100.967"},{"name":"สัตหีบ, อำเภอสัตหีบ, ชลบุรี, 20180","lat":"12.611","lon":"100.889"},{"name":"เขาซก, อำเภอหนองใหญ่, ชลบุรี, 20190","lat":"13.07","lon":"101.42"},{"name":"คลองพลู, อำเภอหนองใหญ่, ชลบุรี, 20190","lat":"13.115","lon":"101.476"},{"name":"หนองเสือช้าง, อำเภอหนองใหญ่, ชลบุรี, 20190","lat":"13.117","lon":"101.283"},{"name":"หนองใหญ่, อำเภอหนองใหญ่, ชลบุรี, 20190","lat":"13.153","lon":"101.375"},{"name":"ห้างสูง, อำเภอหนองใหญ่, ชลบุรี, 20190","lat":"13.243","lon":"101.347"},{"name":"บางพระ, อำเภอศรีราชา, ชลบุรี, 20210","lat":"13.223","lon":"101.007"},{"name":"คลองกิ่ว, อำเภอบ้านบึง, ชลบุรี, 20220","lat":"13.225","lon":"101.107"},{"name":"หนองไผ่แก้ว, อำเภอบ้านบึง, ชลบุรี, 20220","lat":"13.213","lon":"101.246"},{"name":"หนองอิรุณ, อำเภอบ้านบึง, ชลบุรี, 20220","lat":"13.28","lon":"101.247"},{"name":"ทุ่งสุขลา, อำเภอศรีราชา, ชลบุรี, 20230","lat":"13.097","lon":"100.912"},{"name":"บ่อวิน, อำเภอศรีราชา, ชลบุรี, 20230","lat":"13.052","lon":"101.093"},{"name":"บึง, อำเภอศรีราชา, ชลบุรี, 20230","lat":"13.073","lon":"101.006"},{"name":"หนองขาม, อำเภอศรีราชา, ชลบุรี, 20230","lat":"13.134","lon":"101.038"},{"name":"เกาะจันทร์, อำเภอเกาะจันทร์, ชลบุรี, 20240","lat":"13.403","lon":"101.421"},{"name":"ท่าบุญมี, อำเภอเกาะจันทร์, ชลบุรี, 20240","lat":"13.389","lon":"101.288"},{"name":"นาจอมเทียน, อำเภอสัตหีบ, ชลบุรี, 20250","lat":"12.775","lon":"100.94"},{"name":"บางเสร่, อำเภอสัตหีบ, ชลบุรี, 20250","lat":"12.761","lon":"100.844"},{"name":"เกษตรสุวรรณ, อำเภอบ่อทอง, ชลบุรี, 20270","lat":"13.326","lon":"101.526"},{"name":"ธาตุทอง, อำเภอบ่อทอง, ชลบุรี, 20270","lat":"13.259","lon":"101.389"},{"name":"บ่อกวางทอง, อำเภอบ่อทอง, ชลบุรี, 20270","lat":"13.318","lon":"101.308"},{"name":"บ่อทอง, อำเภอบ่อทอง, ชลบุรี, 20270","lat":"13.193","lon":"101.504"},{"name":"พลวงทอง, อำเภอบ่อทอง, ชลบุรี, 20270","lat":"13.217","lon":"101.626"},{"name":"วัดสุวรรณ, อำเภอบ่อทอง, ชลบุรี, 20270","lat":"13.332","lon":"101.419"},{"name":"เชิงเนิน, อำเภอเมืองระยอง, ระยอง, 21000","lat":"12.677","lon":"101.318"},{"name":"เนินพระ, อำเภอเมืองระยอง, ระยอง, 21000","lat":"12.681","lon":"101.223"},{"name":"ตะพง, อำเภอเมืองระยอง, ระยอง, 21000","lat":"12.653","lon":"101.364"},{"name":"ทับมา, อำเภอเมืองระยอง, ระยอง, 21000","lat":"12.708","lon":"101.247"},{"name":"ท่าประดู่, อำเภอเมืองระยอง, ระยอง, 21000","lat":"12.672","lon":"101.266"},{"name":"นาตาขวัญ, อำเภอเมืองระยอง, ระยอง, 21000","lat":"12.741","lon":"101.369"},{"name":"น้ำคอก, อำเภอเมืองระยอง, ระยอง, 21000","lat":"12.716","lon":"101.269"},{"name":"บ้านแลง, อำเภอเมืองระยอง, ระยอง, 21000","lat":"12.707","lon":"101.377"},{"name":"ปากน้ำ, อำเภอเมืองระยอง, ระยอง, 21000","lat":"null","lon":"null"},{"name":"กะเฉด, อำเภอเมืองระยอง, ระยอง, 21100","lat":"null","lon":"null"},{"name":"สำนักทอง, อำเภอเมืองระยอง, ระยอง, 21100","lat":"12.721","lon":"101.472"},{"name":"เขาน้อย, อำเภอเขาชะเมา, ระยอง, 21110","lat":"13.062","lon":"101.617"},{"name":"ชำฆ้อ, อำเภอเขาชะเมา, ระยอง, 21110","lat":"12.933","lon":"101.641"},{"name":"น้ำเป็น, อำเภอเขาชะเมา, ระยอง, 21110","lat":"12.901","lon":"101.749"},{"name":"ห้วยทับมอญ, อำเภอเขาชะเมา, ระยอง, 21110","lat":"13.027","lon":"101.686"},{"name":"เนินฆ้อ, อำเภอแกลง, ระยอง, 21110","lat":"12.704","lon":"101.678"},{"name":"กระแสบน, อำเภอแกลง, ระยอง, 21110","lat":"12.871","lon":"101.611"},{"name":"ชากโดน, อำเภอแกลง, ระยอง, 21110","lat":"12.7","lon":"101.604"},{"name":"ทางเกวียน, อำเภอแกลง, ระยอง, 21110","lat":"12.807","lon":"101.625"},{"name":"ทุ่งควายกิน, อำเภอแกลง, ระยอง, 21110","lat":"12.808","lon":"101.733"},{"name":"บ้านนา, อำเภอแกลง, ระยอง, 21110","lat":"12.846","lon":"101.674"},{"name":"วังหว้า, อำเภอแกลง, ระยอง, 21110","lat":"12.763","lon":"101.624"},{"name":"สองสลึง, อำเภอแกลง, ระยอง, 21110","lat":"12.743","lon":"101.548"},{"name":"ห้วยยาง, อำเภอแกลง, ระยอง, 21110","lat":"12.812","lon":"101.533"},{"name":"ชากบก, อำเภอบ้านค่าย, ระยอง, 21120","lat":"12.783","lon":"101.364"},{"name":"ตาขัน, อำเภอบ้านค่าย, ระยอง, 21120","lat":"12.735","lon":"101.321"},{"name":"บางบุตร, อำเภอบ้านค่าย, ระยอง, 21120","lat":"12.848","lon":"101.391"},{"name":"บ้านค่าย, อำเภอบ้านค่าย, ระยอง, 21120","lat":"12.775","lon":"101.304"},{"name":"หนองตะพาน, อำเภอบ้านค่าย, ระยอง, 21120","lat":"12.752","lon":"101.258"},{"name":"หนองบัว, อำเภอบ้านค่าย, ระยอง, 21120","lat":"12.906","lon":"101.373"},{"name":"หนองละลอก, อำเภอบ้านค่าย, ระยอง, 21120","lat":"12.821","lon":"101.256"},{"name":"บ้านฉาง, อำเภอบ้านฉาง, ระยอง, 21130","lat":"12.732","lon":"101.076"},{"name":"พลา, อำเภอบ้านฉาง, ระยอง, 21130","lat":"12.688","lon":"101.025"},{"name":"สำนักท้อน, อำเภอบ้านฉาง, ระยอง, 21130","lat":"12.804","lon":"101.066"},{"name":"แม่น้ำคู้, อำเภอปลวกแดง, ระยอง, 21140","lat":"12.908","lon":"101.23"},{"name":"ตาสิทธิ์, อำเภอปลวกแดง, ระยอง, 21140","lat":"13.038","lon":"101.225"},{"name":"ปลวกแดง, อำเภอปลวกแดง, ระยอง, 21140","lat":"12.978","lon":"101.226"},{"name":"มาบยางพร, อำเภอปลวกแดง, ระยอง, 21140","lat":"12.97","lon":"101.136"},{"name":"ละหาร, อำเภอปลวกแดง, ระยอง, 21140","lat":"12.973","lon":"101.311"},{"name":"หนองไร่, อำเภอปลวกแดง, ระยอง, 21140","lat":"13.039","lon":"101.338"},{"name":"เนินพระ, อำเภอเมืองระยอง, ระยอง, 21150","lat":"12.681","lon":"101.223"},{"name":"มาบตาพุด, อำเภอเมืองระยอง, ระยอง, 21150","lat":"12.646","lon":"101.171"},{"name":"ห้วยโป่ง, อำเภอเมืองระยอง, ระยอง, 21150","lat":"null","lon":"null"},{"name":"เพ, อำเภอเมืองระยอง, ระยอง, 21160","lat":"12.568","lon":"101.455"},{"name":"แกลง, อำเภอเมืองระยอง, ระยอง, 21160","lat":"12.663","lon":"101.467"},{"name":"คลองปูน, อำเภอแกลง, ระยอง, 21170","lat":"12.765","lon":"101.75"},{"name":"ปากน้ำกระแส, อำเภอแกลง, ระยอง, 21170","lat":"12.717","lon":"101.709"},{"name":"พังราด, อำเภอแกลง, ระยอง, 21170","lat":"12.729","lon":"101.772"},{"name":"นิคมพัฒนา, อำเภอนิคมพัฒนา, ระยอง, 21180","lat":"12.856","lon":"101.177"},{"name":"พนานิคม, อำเภอนิคมพัฒนา, ระยอง, 21180","lat":"12.902","lon":"101.135"},{"name":"มะขามคู่, อำเภอนิคมพัฒนา, ระยอง, 21180","lat":"12.847","lon":"101.101"},{"name":"มาบข่า, อำเภอนิคมพัฒนา, ระยอง, 21180","lat":"12.782","lon":"101.193"},{"name":"กร่ำ, อำเภอแกลง, ระยอง, 21190","lat":"12.584","lon":"101.51"},{"name":"ชากพง, อำเภอแกลง, ระยอง, 21190","lat":"12.668","lon":"101.549"},{"name":"ชุมแสง, อำเภอวังจันทร์, ระยอง, 21210","lat":"12.956","lon":"101.526"},{"name":"ป่ายุบใน, อำเภอวังจันทร์, ระยอง, 21210","lat":"13.005","lon":"101.479"},{"name":"พลงตาเอี่ยม, อำเภอวังจันทร์, ระยอง, 21210","lat":"12.912","lon":"101.541"},{"name":"วังจันทร์, อำเภอวังจันทร์, ระยอง, 21210","lat":"12.858","lon":"101.528"},{"name":"เกาะขวาง, อำเภอเมืองจันทบุรี, จันทบุรี, 22000","lat":"12.562","lon":"102.09"},{"name":"แสลง, อำเภอเมืองจันทบุรี, จันทบุรี, 22000","lat":"12.694","lon":"102.107"},{"name":"คมบาง, อำเภอเมืองจันทบุรี, จันทบุรี, 22000","lat":"12.542","lon":"102.169"},{"name":"คลองนารายณ์, อำเภอเมืองจันทบุรี, จันทบุรี, 22000","lat":"12.574","lon":"102.166"},{"name":"จันทนิมิต, อำเภอเมืองจันทบุรี, จันทบุรี, 22000","lat":"12.61","lon":"102.123"},{"name":"ตลาด, อำเภอเมืองจันทบุรี, จันทบุรี, 22000","lat":"12.591","lon":"102.087"},{"name":"ท่าช้าง, อำเภอเมืองจันทบุรี, จันทบุรี, 22000","lat":"12.644","lon":"102.098"},{"name":"บางกะจะ, อำเภอเมืองจันทบุรี, จันทบุรี, 22000","lat":"12.563","lon":"102.056"},{"name":"พลับพลา, อำเภอเมืองจันทบุรี, จันทบุรี, 22000","lat":"12.605","lon":"102.172"},{"name":"วัดใหม่, อำเภอเมืองจันทบุรี, จันทบุรี, 22000","lat":"12.611","lon":"102.105"},{"name":"หนองบัว, อำเภอเมืองจันทบุรี, จันทบุรี, 22000","lat":"12.534","lon":"102.101"},{"name":"เกวียนหัก, อำเภอขลุง, จันทบุรี, 22110","lat":"12.468","lon":"102.2"},{"name":"ขลุง, อำเภอขลุง, จันทบุรี, 22110","lat":"12.452","lon":"102.218"},{"name":"ซึ้ง, อำเภอขลุง, จันทบุรี, 22110","lat":"12.487","lon":"102.288"},{"name":"ตกพรม, อำเภอขลุง, จันทบุรี, 22110","lat":"12.625","lon":"102.339"},{"name":"ตรอกนอง, อำเภอขลุง, จันทบุรี, 22110","lat":"12.533","lon":"102.275"},{"name":"ตะปอน, อำเภอขลุง, จันทบุรี, 22110","lat":"12.493","lon":"102.175"},{"name":"บ่อ, อำเภอขลุง, จันทบุรี, 22110","lat":"12.412","lon":"102.279"},{"name":"บางชัน, อำเภอขลุง, จันทบุรี, 22110","lat":"12.288","lon":"102.251"},{"name":"มาบไพ, อำเภอขลุง, จันทบุรี, 22110","lat":"12.598","lon":"102.258"},{"name":"วังสรรพรส, อำเภอขลุง, จันทบุรี, 22110","lat":"12.56","lon":"102.29"},{"name":"วันยาว, อำเภอขลุง, จันทบุรี, 22110","lat":"12.439","lon":"102.234"},{"name":"บางกะไชย, อำเภอแหลมสิงห์, จันทบุรี, 22120","lat":"12.465","lon":"102.066"},{"name":"เขาบายศรี, อำเภอท่าใหม่, จันทบุรี, 22120","lat":"12.74","lon":"102.061"},{"name":"เขาวัว, อำเภอท่าใหม่, จันทบุรี, 22120","lat":"12.637","lon":"102.035"},{"name":"คลองขุด, อำเภอท่าใหม่, จันทบุรี, 22120","lat":"12.512","lon":"101.95"},{"name":"ตะกาดเง้า, อำเภอท่าใหม่, จันทบุรี, 22120","lat":"12.581","lon":"101.989"},{"name":"ท่าใหม่, อำเภอท่าใหม่, จันทบุรี, 22120","lat":"12.628","lon":"101.985"},{"name":"บ่อพุ, อำเภอท่าใหม่, จันทบุรี, 22120","lat":"12.595","lon":"102.028"},{"name":"พลอยแหวน, อำเภอท่าใหม่, จันทบุรี, 22120","lat":"12.617","lon":"102.053"},{"name":"ยายร้า, อำเภอท่าใหม่, จันทบุรี, 22120","lat":"12.612","lon":"102.027"},{"name":"สองพี่น้อง, อำเภอท่าใหม่, จันทบุรี, 22120","lat":"12.672","lon":"101.973"},{"name":"สีพยา, อำเภอท่าใหม่, จันทบุรี, 22120","lat":"12.578","lon":"102.029"},{"name":"เกาะเปริด, อำเภอแหลมสิงห์, จันทบุรี, 22130","lat":"12.424","lon":"102.109"},{"name":"ปากน้ำแหลมสิงห์, อำเภอแหลมสิงห์, จันทบุรี, 22130","lat":"12.452","lon":"102.122"},{"name":"หนองชิ่ม, อำเภอแหลมสิงห์, จันทบุรี, 22130","lat":"12.417","lon":"102.178"},{"name":"เทพนิมิต, อำเภอโป่งน้ำร้อน, จันทบุรี, 22140","lat":"13.044","lon":"102.453"},{"name":"โป่งน้ำร้อน, อำเภอโป่งน้ำร้อน, จันทบุรี, 22140","lat":"12.89","lon":"102.382"},{"name":"คลองใหญ่, อำเภอโป่งน้ำร้อน, จันทบุรี, 22140","lat":"12.873","lon":"102.476"},{"name":"ทับไทร, อำเภอโป่งน้ำร้อน, จันทบุรี, 22140","lat":"12.95","lon":"102.247"},{"name":"หนองตาคง, อำเภอโป่งน้ำร้อน, จันทบุรี, 22140","lat":"13.067","lon":"102.381"},{"name":"บ่อเวฬุ, อำเภอขลุง, จันทบุรี, 22150","lat":"12.723","lon":"102.367"},{"name":"ฉมัน, อำเภอมะขาม, จันทบุรี, 22150","lat":"12.817","lon":"102.224"},{"name":"ท่าหลวง, อำเภอมะขาม, จันทบุรี, 22150","lat":"12.7","lon":"102.147"},{"name":"ปัถวี, อำเภอมะขาม, จันทบุรี, 22150","lat":"12.743","lon":"102.272"},{"name":"มะขาม, อำเภอมะขาม, จันทบุรี, 22150","lat":"12.677","lon":"102.187"},{"name":"วังแซ้ม, อำเภอมะขาม, จันทบุรี, 22150","lat":"12.756","lon":"102.156"},{"name":"อ่างคีรี, อำเภอมะขาม, จันทบุรี, 22150","lat":"12.644","lon":"102.226"},{"name":"เขาวงกต, อำเภอแก่งหางแมว, จันทบุรี, 22160","lat":"12.881","lon":"101.848"},{"name":"แก่งหางแมว, อำเภอแก่งหางแมว, จันทบุรี, 22160","lat":"12.982","lon":"101.929"},{"name":"ขุนซ่อง, อำเภอแก่งหางแมว, จันทบุรี, 22160","lat":"13.169","lon":"101.961"},{"name":"พวา, อำเภอแก่งหางแมว, จันทบุรี, 22160","lat":"13.105","lon":"101.791"},{"name":"สามพี่น้อง, อำเภอแก่งหางแมว, จันทบุรี, 22160","lat":"12.977","lon":"101.817"},{"name":"ช้างข้าม, อำเภอนายายอาม, จันทบุรี, 22160","lat":"12.707","lon":"101.819"},{"name":"นายายอาม, อำเภอนายายอาม, จันทบุรี, 22160","lat":"12.782","lon":"101.847"},{"name":"กองดิน, อำเภอแกลง, ระยอง, 22160","lat":"12.815","lon":"101.792"},{"name":"เขาแก้ว, อำเภอท่าใหม่, จันทบุรี, 22170","lat":"12.867","lon":"101.939"},{"name":"โขมง, อำเภอท่าใหม่, จันทบุรี, 22170","lat":"12.62","lon":"101.94"},{"name":"ทุ่งเบญจา, อำเภอท่าใหม่, จันทบุรี, 22170","lat":"12.814","lon":"102.014"},{"name":"รำพัน, อำเภอท่าใหม่, จันทบุรี, 22170","lat":"12.669","lon":"101.914"},{"name":"กระแจะ, อำเภอนายายอาม, จันทบุรี, 22170","lat":"12.689","lon":"101.861"},{"name":"วังโตนด, อำเภอนายายอาม, จันทบุรี, 22170","lat":"12.701","lon":"101.933"},{"name":"วังใหม่, อำเภอนายายอาม, จันทบุรี, 22170","lat":"12.764","lon":"101.904"},{"name":"สนามไชย, อำเภอนายายอาม, จันทบุรี, 22170","lat":"12.625","lon":"101.874"},{"name":"ทรายขาว, อำเภอสอยดาว, จันทบุรี, 22180","lat":"13.086","lon":"102.197"},{"name":"ทับช้าง, อำเภอสอยดาว, จันทบุรี, 22180","lat":"13.265","lon":"102.161"},{"name":"ทุ่งขนาน, อำเภอสอยดาว, จันทบุรี, 22180","lat":"13.232","lon":"102.319"},{"name":"ปะตง, อำเภอสอยดาว, จันทบุรี, 22180","lat":"13.17","lon":"102.194"},{"name":"สะตอน, อำเภอสอยดาว, จันทบุรี, 22180","lat":"13.174","lon":"102.371"},{"name":"คลองน้ำเค็ม, อำเภอแหลมสิงห์, จันทบุรี, 22190","lat":"12.498","lon":"102.123"},{"name":"บางสระเก้า, อำเภอแหลมสิงห์, จันทบุรี, 22190","lat":"12.511","lon":"102.109"},{"name":"พลิ้ว, อำเภอแหลมสิงห์, จันทบุรี, 22190","lat":"12.516","lon":"102.161"},{"name":"คลองพลู, อำเภอเขาคิชฌกูฏ, จันทบุรี, 22210","lat":"12.931","lon":"102.014"},{"name":"จันทเขลม, อำเภอเขาคิชฌกูฏ, จันทบุรี, 22210","lat":"13.071","lon":"102.09"},{"name":"ชากไทย, อำเภอเขาคิชฌกูฏ, จันทบุรี, 22210","lat":"null","lon":"null"},{"name":"ตะเคียนทอง, อำเภอเขาคิชฌกูฏ, จันทบุรี, 22210","lat":"12.903","lon":"102.132"},{"name":"พลวง, อำเภอเขาคิชฌกูฏ, จันทบุรี, 22210","lat":"12.822","lon":"102.106"},{"name":"เกาะกูด, อำเภอเกาะกูด, ตราด, 23000","lat":"11.719","lon":"102.519"},{"name":"เกาะหมาก, อำเภอเกาะกูด, ตราด, 23000","lat":"11.817","lon":"102.397"},{"name":"เนินทราย, อำเภอเมืองตราด, ตราด, 23000","lat":"12.283","lon":"102.547"},{"name":"แหลมกลัด, อำเภอเมืองตราด, ตราด, 23000","lat":"12.117","lon":"102.704"},{"name":"ชำราก, อำเภอเมืองตราด, ตราด, 23000","lat":"12.194","lon":"102.677"},{"name":"ตะกาง, อำเภอเมืองตราด, ตราด, 23000","lat":"12.25","lon":"102.659"},{"name":"ท่ากุ่ม, อำเภอเมืองตราด, ตราด, 23000","lat":"12.345","lon":"102.675"},{"name":"ท่าพริก, อำเภอเมืองตราด, ตราด, 23000","lat":"12.243","lon":"102.589"},{"name":"บางพระ, อำเภอเมืองตราด, ตราด, 23000","lat":"null","lon":"null"},{"name":"วังกระแจะ, อำเภอเมืองตราด, ตราด, 23000","lat":"12.272","lon":"102.479"},{"name":"หนองเสม็ด, อำเภอเมืองตราด, ตราด, 23000","lat":"12.216","lon":"102.504"},{"name":"หนองโสน, อำเภอเมืองตราด, ตราด, 23000","lat":"12.184","lon":"102.488"},{"name":"หนองคันทรง, อำเภอเมืองตราด, ตราด, 23000","lat":"12.194","lon":"102.542"},{"name":"ห้วงน้ำขาว, อำเภอเมืองตราด, ตราด, 23000","lat":"12.143","lon":"102.518"},{"name":"ห้วยแร้ง, อำเภอเมืองตราด, ตราด, 23000","lat":"12.387","lon":"102.56"},{"name":"อ่าวใหญ่, อำเภอเมืองตราด, ตราด, 23000","lat":"12.078","lon":"102.562"},{"name":"ไม้รูด, อำเภอคลองใหญ่, ตราด, 23110","lat":"11.91","lon":"102.805"},{"name":"คลองใหญ่, อำเภอคลองใหญ่, ตราด, 23110","lat":"11.774","lon":"102.889"},{"name":"หาดเล็ก, อำเภอคลองใหญ่, ตราด, 23110","lat":"11.699","lon":"102.909"},{"name":"แหลมงอบ, อำเภอแหลมงอบ, ตราด, 23120","lat":"12.186","lon":"102.419"},{"name":"คลองใหญ่, อำเภอแหลมงอบ, ตราด, 23120","lat":"12.226","lon":"102.362"},{"name":"น้ำเชี่ยว, อำเภอแหลมงอบ, ตราด, 23120","lat":"12.209","lon":"102.436"},{"name":"บางปิด, อำเภอแหลมงอบ, ตราด, 23120","lat":"12.241","lon":"102.301"},{"name":"เขาสมิง, อำเภอเขาสมิง, ตราด, 23130","lat":"12.34","lon":"102.437"},{"name":"ทุ่งนนทรี, อำเภอเขาสมิง, ตราด, 23130","lat":"12.405","lon":"102.501"},{"name":"วังตะเคียน, อำเภอเขาสมิง, ตราด, 23130","lat":"12.478","lon":"102.531"},{"name":"ช้างทูน, อำเภอบ่อไร่, ตราด, 23140","lat":"12.585","lon":"102.469"},